{"type":"FeatureCollection","features":[{"type":"Feature","properties":{"name":"もみじが丘中央公園","address":"長崎県佐世保市もみじが丘町2","muni":"佐世保市","hazards":["地震","津波","大規模な火事"],"kind":"指定緊急避難場所"},"geometry":{"type":"Point","coordinates":[129.7743528,33.1599]}},{"type":"Feature","properties":{"name":"もみじが丘第一公園","address":"長崎県佐世保市もみじが丘町28-1","muni":"佐世保市","hazards":["地震","津波","大規模な火事"],"kind":"指定緊急避難場所"},"geometry":{"type":"Point","coordinates":[129.7777861,33.16172778]}},{"type":"Feature","properties":{"name":"日宇地区コミュニティセンター体育室","address":"長崎県佐世保市もみじが丘町42-1","muni":"佐世保市","hazards":["土砂災害"],"kind":"指定緊急避難場所"},"geometry":{"type":"Point","coordinates":[129.7815028,33.160475]}},{"type":"Feature","properties":{"name":"もみじが丘第三公園","address":"長崎県佐世保市もみじが丘町47-60","muni":"佐世保市","hazards":["地震","津波","大規模な火事"],"kind":"指定緊急避難場所"},"geometry":{"type":"Point","coordinates":[129.779295,33.158971]}},{"type":"Feature","properties":{"name":"もみじが丘第四公園","address":"長崎県佐世保市もみじが丘町6-4","muni":"佐世保市","hazards":["地震","津波","大規模な火事"],"kind":"指定緊急避難場所"},"geometry":{"type":"Point","coordinates":[129.776855,33.158546]}},{"type":"Feature","properties":{"name":"大塔小学校","address":"長崎県佐世保市もみじが丘町6745","muni":"佐世保市","hazards":["土砂災害","地震","大規模な火事"],"kind":"指定緊急避難場所"},"geometry":{"type":"Point","coordinates":[129.7743833,33.16146111]}},{"type":"Feature","properties":{"name":"長崎国際大学","address":"長崎県佐世保市ハウステンボス町2825-7","muni":"佐世保市","hazards":["洪水","土砂災害","地震","大規模な火事"],"kind":"指定緊急避難場所"},"geometry":{"type":"Point","coordinates":[129.789978,33.101685]}},{"type":"Feature","properties":{"name":"道の駅「させぼっくす　９９」","address":"長崎県佐世保市愛宕町11","muni":"佐世保市","hazards":["洪水","土砂災害","地震","津波","大規模な火事"],"kind":"指定緊急避難場所"},"geometry":{"type":"Point","coordinates":[129.6718972,33.201475]}},{"type":"Feature","properties":{"name":"旧庵浦小学校","address":"長崎県佐世保市庵浦町1446","muni":"佐世保市","hazards":["地震","大規模な火事"],"kind":"指定緊急避難場所"},"geometry":{"type":"Point","coordinates":[129.6991889,33.12499444]}},{"type":"Feature","properties":{"name":"稲荷公園","address":"長崎県佐世保市稲荷町165-8","muni":"佐世保市","hazards":["地震","津波","大規模な火事"],"kind":"指定緊急避難場所"},"geometry":{"type":"Point","coordinates":[129.7339417,33.15701389]}},{"type":"Feature","properties":{"name":"大宮公園","address":"長崎県佐世保市稲荷町190","muni":"佐世保市","hazards":["地震","津波","大規模な火事"],"kind":"指定緊急避難場所"},"geometry":{"type":"Point","coordinates":[129.737002,33.157296]}},{"type":"Feature","properties":{"name":"南地区コミュニティセンター","address":"長崎県佐世保市稲荷町2-5","muni":"佐世保市","hazards":["土砂災害"],"kind":"指定緊急避難場所"},"geometry":{"type":"Point","coordinates":[129.7346611,33.157075]}},{"type":"Feature","properties":{"name":"宇久町総合公園","address":"長崎県佐世保市宇久町小浜３０９６－４８外","muni":"佐世保市","hazards":["地震","津波","大規模な火事"],"kind":"指定緊急避難場所"},"geometry":{"type":"Point","coordinates":[129.1188028,33.26016111]}},{"type":"Feature","properties":{"name":"県立宇久高等学校","address":"長崎県佐世保市宇久町平1042","muni":"佐世保市","hazards":["土砂災害","地震","津波","大規模な火事"],"kind":"指定緊急避難場所"},"geometry":{"type":"Point","coordinates":[129.1267222,33.26416667]}},{"type":"Feature","properties":{"name":"エビスが丘中央公園","address":"長崎県佐世保市宇久町平2253","muni":"佐世保市","hazards":["地震","津波","大規模な火事"],"kind":"指定緊急避難場所"},"geometry":{"type":"Point","coordinates":[129.1308111,33.26830556]}},{"type":"Feature","properties":{"name":"宇久中学校","address":"長崎県佐世保市宇久町平2303","muni":"佐世保市","hazards":["土砂災害","地震","津波","大規模な火事"],"kind":"指定緊急避難場所"},"geometry":{"type":"Point","coordinates":[129.1313111,33.26747222]}},{"type":"Feature","properties":{"name":"宇久小学校","address":"長崎県佐世保市宇久町平2690","muni":"佐世保市","hazards":["土砂災害","地震","津波","大規模な火事"],"kind":"指定緊急避難場所"},"geometry":{"type":"Point","coordinates":[129.13042121766,33.266310924037]}},{"type":"Feature","properties":{"name":"宇久地区コミュニティセンター","address":"長崎県佐世保市宇久町平2691","muni":"佐世保市","hazards":["土砂災害"],"kind":"指定緊急避難場所"},"geometry":{"type":"Point","coordinates":[129.1303361,33.26640278]}},{"type":"Feature","properties":{"name":"古里公園","address":"長崎県佐世保市宇久町本飯良1307","muni":"佐世保市","hazards":["地震","津波","大規模な火事"],"kind":"指定緊急避難場所"},"geometry":{"type":"Point","coordinates":[129.0860056,33.2669]}},{"type":"Feature","properties":{"name":"烏帽子岳高原リゾートスポーツの里","address":"長崎県佐世保市烏帽子町128","muni":"佐世保市","hazards":["地震","津波","大規模な火事"],"kind":"指定緊急避難場所"},"geometry":{"type":"Point","coordinates":[129.7636639,33.184025]}},{"type":"Feature","properties":{"name":"県立佐世保青少年の天地","address":"長崎県佐世保市烏帽子町376","muni":"佐世保市","hazards":["土砂災害","地震","大規模な火事"],"kind":"指定緊急避難場所"},"geometry":{"type":"Point","coordinates":[129.75675,33.17572778]}},{"type":"Feature","properties":{"name":"東部スポーツ広場","address":"長崎県佐世保市浦川内町","muni":"佐世保市","hazards":["洪水","土砂災害","地震","津波","大規模な火事"],"kind":"指定緊急避難場所"},"geometry":{"type":"Point","coordinates":[129.8049889,33.11929167]}},{"type":"Feature","properties":{"name":"佐世保拘置支所（鍛錬場）","address":"長崎県佐世保市浦川内町1","muni":"佐世保市","hazards":["土砂災害","地震","大規模な火事"],"kind":"指定緊急避難場所"},"geometry":{"type":"Point","coordinates":[129.81247888835,33.117945063315]}},{"type":"Feature","properties":{"name":"国立佐世保工業高等専門学校","address":"長崎県佐世保市沖新町1-1","muni":"佐世保市","hazards":["土砂災害","地震","大規模な火事"],"kind":"指定緊急避難場所"},"geometry":{"type":"Point","coordinates":[129.7487194,33.14938889]}},{"type":"Feature","properties":{"name":"宮小学校","address":"長崎県佐世保市荻坂町1715","muni":"佐世保市","hazards":["洪水","土砂災害","地震","大規模な火事"],"kind":"指定緊急避難場所"},"geometry":{"type":"Point","coordinates":[129.8181917,33.08846944]}},{"type":"Feature","properties":{"name":"卸本町第二公園","address":"長崎県佐世保市卸本町174","muni":"佐世保市","hazards":["地震","津波","大規模な火事"],"kind":"指定緊急避難場所"},"geometry":{"type":"Point","coordinates":[129.7721,33.14866111]}},{"type":"Feature","properties":{"name":"下宇戸公園","address":"長崎県佐世保市下宇戸町802-1","muni":"佐世保市","hazards":["地震","津波","大規模な火事"],"kind":"指定緊急避難場所"},"geometry":{"type":"Point","coordinates":[129.773975,33.19158611]}},{"type":"Feature","properties":{"name":"船越第二公園","address":"長崎県佐世保市下船越町306-3","muni":"佐世保市","hazards":["地震","大規模な火事"],"kind":"指定緊急避難場所"},"geometry":{"type":"Point","coordinates":[129.6975778,33.13663333]}},{"type":"Feature","properties":{"name":"九十九地区コミュニティセンター","address":"長崎県佐世保市下船越町306-7","muni":"佐世保市","hazards":["土砂災害"],"kind":"指定緊急避難場所"},"geometry":{"type":"Point","coordinates":[129.6980667,33.13688889]}},{"type":"Feature","properties":{"name":"九州文化学園小中学校","address":"長崎県佐世保市花園町10-1","muni":"佐世保市","hazards":["洪水","地震","津波","大規模な火事"],"kind":"指定緊急避難場所"},"geometry":{"type":"Point","coordinates":[129.7233667,33.18285]}},{"type":"Feature","properties":{"name":"花高第一公園","address":"長崎県佐世保市花高1-269-9","muni":"佐世保市","hazards":["地震","津波","大規模な火事"],"kind":"指定緊急避難場所"},"geometry":{"type":"Point","coordinates":[129.8048056,33.13750833]}},{"type":"Feature","properties":{"name":"早岐児童センター","address":"長崎県佐世保市花高1-6-45","muni":"佐世保市","hazards":["洪水","土砂災害"],"kind":"指定緊急避難場所"},"geometry":{"type":"Point","coordinates":[129.803774,33.138361]}},{"type":"Feature","properties":{"name":"花高第二公園","address":"長崎県佐世保市花高3-20-3","muni":"佐世保市","hazards":["地震","津波","大規模な火事"],"kind":"指定緊急避難場所"},"geometry":{"type":"Point","coordinates":[129.8107667,33.14281944]}},{"type":"Feature","properties":{"name":"花高小学校","address":"長崎県佐世保市花高3-4-1","muni":"佐世保市","hazards":["洪水","土砂災害","地震","大規模な火事"],"kind":"指定緊急避難場所"},"geometry":{"type":"Point","coordinates":[129.8115417,33.140675]}},{"type":"Feature","properties":{"name":"早岐地区コミュニティセンター　花高体育室","address":"長崎県佐世保市花高3-98-11","muni":"佐世保市","hazards":["洪水","津波"],"kind":"指定緊急避難場所"},"geometry":{"type":"Point","coordinates":[129.808785,33.140929]}},{"type":"Feature","properties":{"name":"花高中央公園","address":"長崎県佐世保市花高3-98-11","muni":"佐世保市","hazards":["地震","津波","大規模な火事"],"kind":"指定緊急避難場所"},"geometry":{"type":"Point","coordinates":[129.8096917,33.14034722]}},{"type":"Feature","properties":{"name":"花高第三公園","address":"長崎県佐世保市花高4-110-142","muni":"佐世保市","hazards":["地震","津波","大規模な火事"],"kind":"指定緊急避難場所"},"geometry":{"type":"Point","coordinates":[129.8129361,33.14034167]}},{"type":"Feature","properties":{"name":"皆瀬小学校","address":"長崎県佐世保市皆瀬町207","muni":"佐世保市","hazards":["洪水","土砂災害","地震","大規模な火事"],"kind":"指定緊急避難場所"},"geometry":{"type":"Point","coordinates":[129.6980083,33.21419444]}},{"type":"Feature","properties":{"name":"福石中学校","address":"長崎県佐世保市干尽町2-10","muni":"佐世保市","hazards":["土砂災害","地震","津波","大規模な火事"],"kind":"指定緊急避難場所"},"geometry":{"type":"Point","coordinates":[129.7326111,33.15322778]}},{"type":"Feature","properties":{"name":"佐世保競輪場","address":"長崎県佐世保市干尽町2-5","muni":"佐世保市","hazards":["土砂災害","地震","津波","大規模な火事"],"kind":"指定緊急避難場所"},"geometry":{"type":"Point","coordinates":[129.7305722,33.15534722]}},{"type":"Feature","properties":{"name":"干尽公園","address":"長崎県佐世保市干尽町6-21","muni":"佐世保市","hazards":["地震","津波","大規模な火事"],"kind":"指定緊急避難場所"},"geometry":{"type":"Point","coordinates":[129.7245417,33.15036667]}},{"type":"Feature","properties":{"name":"祇園中学校","address":"長崎県佐世保市祇園町14-12","muni":"佐世保市","hazards":["洪水","土砂災害","地震","大規模な火事"],"kind":"指定緊急避難場所"},"geometry":{"type":"Point","coordinates":[129.725175,33.17686667]}},{"type":"Feature","properties":{"name":"祇園小学校","address":"長崎県佐世保市祇園町18-18","muni":"佐世保市","hazards":["洪水","土砂災害","地震","大規模な火事"],"kind":"指定緊急避難場所"},"geometry":{"type":"Point","coordinates":[129.7234778,33.17466389]}},{"type":"Feature","properties":{"name":"牧の岳公園","address":"長崎県佐世保市吉井町前岳158-1","muni":"佐世保市","hazards":["地震","津波","大規模な火事"],"kind":"指定緊急避難場所"},"geometry":{"type":"Point","coordinates":[129.7003944,33.271725]}},{"type":"Feature","properties":{"name":"吉井南小学校","address":"長崎県佐世保市吉井町前岳27-3","muni":"佐世保市","hazards":["洪水","土砂災害","地震","大規模な火事"],"kind":"指定緊急避難場所"},"geometry":{"type":"Point","coordinates":[129.6918194,33.27063056]}},{"type":"Feature","properties":{"name":"吉井中学校","address":"長崎県佐世保市吉井町前岳3-2","muni":"佐世保市","hazards":["土砂災害","地震","大規模な火事"],"kind":"指定緊急避難場所"},"geometry":{"type":"Point","coordinates":[129.6921444,33.27006389]}},{"type":"Feature","properties":{"name":"吉井北小学校","address":"長崎県佐世保市吉井町直谷1030","muni":"佐世保市","hazards":["洪水","土砂災害","地震","大規模な火事"],"kind":"指定緊急避難場所"},"geometry":{"type":"Point","coordinates":[129.69877101402,33.286460901278]}},{"type":"Feature","properties":{"name":"吉井地区コミュニティセンター　吉田乃館","address":"長崎県佐世保市吉井町田原625-1","muni":"佐世保市","hazards":["洪水","土砂災害","地震","大規模な火事"],"kind":"指定緊急避難場所"},"geometry":{"type":"Point","coordinates":[129.699692,33.259901]}},{"type":"Feature","properties":{"name":"吉井親水公園","address":"長崎県佐世保市吉井町立石227-3","muni":"佐世保市","hazards":["地震","津波","大規模な火事"],"kind":"指定緊急避難場所"},"geometry":{"type":"Point","coordinates":[129.6860028,33.26724167]}},{"type":"Feature","properties":{"name":"吉井地区コミュニティセンター","address":"長崎県佐世保市吉井町立石473","muni":"佐世保市","hazards":["土砂災害"],"kind":"指定緊急避難場所"},"geometry":{"type":"Point","coordinates":[129.6887861,33.270125]}},{"type":"Feature","properties":{"name":"吉岡第二公園","address":"長崎県佐世保市吉岡町1023-1","muni":"佐世保市","hazards":["地震","津波","大規模な火事"],"kind":"指定緊急避難場所"},"geometry":{"type":"Point","coordinates":[129.6950639,33.20637778]}},{"type":"Feature","properties":{"name":"県立佐世保商業高等学校","address":"長崎県佐世保市吉岡町863-3","muni":"佐世保市","hazards":["洪水","土砂災害","地震","大規模な火事"],"kind":"指定緊急避難場所"},"geometry":{"type":"Point","coordinates":[129.6982083,33.20597222]}},{"type":"Feature","properties":{"name":"光海中学校","address":"長崎県佐世保市金比良町1-15","muni":"佐世保市","hazards":["洪水","土砂災害","地震","津波","大規模な火事"],"kind":"指定緊急避難場所"},"geometry":{"type":"Point","coordinates":[129.708726,33.168796]}},{"type":"Feature","properties":{"name":"金比良小学校","address":"長崎県佐世保市金比良町1-5","muni":"佐世保市","hazards":["洪水","土砂災害","地震","津波","大規模な火事"],"kind":"指定緊急避難場所"},"geometry":{"type":"Point","coordinates":[129.70786,33.169973]}},{"type":"Feature","properties":{"name":"西地区コミュニティセンター","address":"長崎県佐世保市金比良町1-7","muni":"佐世保市","hazards":["洪水","土砂災害","津波"],"kind":"指定緊急避難場所"},"geometry":{"type":"Point","coordinates":[129.7069306,33.16935278]}},{"type":"Feature","properties":{"name":"県立武道館","address":"長崎県佐世保市熊野町90","muni":"佐世保市","hazards":["洪水","津波"],"kind":"指定緊急避難場所"},"geometry":{"type":"Point","coordinates":[129.72261,33.178806]}},{"type":"Feature","properties":{"name":"平松公園","address":"長崎県佐世保市桑木場町1840-1","muni":"佐世保市","hazards":["地震","津波","大規模な火事"],"kind":"指定緊急避難場所"},"geometry":{"type":"Point","coordinates":[129.8083639,33.16728056]}},{"type":"Feature","properties":{"name":"権常寺公園","address":"長崎県佐世保市権常寺1-20","muni":"佐世保市","hazards":["地震","大規模な火事"],"kind":"指定緊急避難場所"},"geometry":{"type":"Point","coordinates":[129.7999472,33.13224444]}},{"type":"Feature","properties":{"name":"大野小学校","address":"長崎県佐世保市原分町1","muni":"佐世保市","hazards":["土砂災害","地震","大規模な火事"],"kind":"指定緊急避難場所"},"geometry":{"type":"Point","coordinates":[129.7262139,33.21023611]}},{"type":"Feature","properties":{"name":"北部ふれあいスポーツ広場","address":"長崎県佐世保市原分町1578","muni":"佐世保市","hazards":["地震","津波","大規模な火事"],"kind":"指定緊急避難場所"},"geometry":{"type":"Point","coordinates":[129.7275778,33.22043333]}},{"type":"Feature","properties":{"name":"旧戸尾小学校跡","address":"長崎県佐世保市戸尾町5-1","muni":"佐世保市","hazards":["洪水","土砂災害","地震","津波","大規模な火事"],"kind":"指定緊急避難場所"},"geometry":{"type":"Point","coordinates":[129.7252306,33.16900833]}},{"type":"Feature","properties":{"name":"琴平公園","address":"長崎県佐世保市御船町370-1","muni":"佐世保市","hazards":["地震","津波","大規模な火事"],"kind":"指定緊急避難場所"},"geometry":{"type":"Point","coordinates":[129.7045028,33.16996389]}},{"type":"Feature","properties":{"name":"中部地区コミュニティセンター","address":"長崎県佐世保市光月町6-17","muni":"佐世保市","hazards":["洪水","土砂災害","津波"],"kind":"指定緊急避難場所"},"geometry":{"type":"Point","coordinates":[129.724899,33.173004]}},{"type":"Feature","properties":{"name":"体育文化館","address":"長崎県佐世保市光月町6-17","muni":"佐世保市","hazards":["洪水","土砂災害","地震","津波","大規模な火事"],"kind":"指定緊急避難場所"},"geometry":{"type":"Point","coordinates":[129.724173,33.17268]}},{"type":"Feature","properties":{"name":"新公園","address":"長崎県佐世保市光月町１０００－９外２町","muni":"佐世保市","hazards":["地震","津波","大規模な火事"],"kind":"指定緊急避難場所"},"geometry":{"type":"Point","coordinates":[129.7247472,33.17233889]}},{"type":"Feature","properties":{"name":"三川内小学校","address":"長崎県佐世保市口の尾町698","muni":"佐世保市","hazards":["洪水","土砂災害","地震","大規模な火事"],"kind":"指定緊急避難場所"},"geometry":{"type":"Point","coordinates":[129.8285639,33.15932222]}},{"type":"Feature","properties":{"name":"小森公園","address":"長崎県佐世保市広田1-129","muni":"佐世保市","hazards":["地震","大規模な火事"],"kind":"指定緊急避難場所"},"geometry":{"type":"Point","coordinates":[129.7991861,33.12884167]}},{"type":"Feature","properties":{"name":"広田小学校","address":"長崎県佐世保市広田1-25-4","muni":"佐世保市","hazards":["洪水","土砂災害","地震","津波","大規模な火事"],"kind":"指定緊急避難場所"},"geometry":{"type":"Point","coordinates":[129.802558,33.127462]}},{"type":"Feature","properties":{"name":"広田公園","address":"長崎県佐世保市広田3-119","muni":"佐世保市","hazards":["地震","津波","大規模な火事"],"kind":"指定緊急避難場所"},"geometry":{"type":"Point","coordinates":[129.8045222,33.12295278]}},{"type":"Feature","properties":{"name":"崎岡第一公園","address":"長崎県佐世保市広田3-396","muni":"佐世保市","hazards":["地震","大規模な火事"],"kind":"指定緊急避難場所"},"geometry":{"type":"Point","coordinates":[129.8021889,33.12014167]}},{"type":"Feature","properties":{"name":"江永公園","address":"長崎県佐世保市江永町610-1","muni":"佐世保市","hazards":["地震","津波","大規模な火事"],"kind":"指定緊急避難場所"},"geometry":{"type":"Point","coordinates":[129.8428722,33.160625]}},{"type":"Feature","properties":{"name":"白岳自然公園","address":"長崎県佐世保市江迎町奥川内253-6","muni":"佐世保市","hazards":["地震","津波","大規模な火事"],"kind":"指定緊急避難場所"},"geometry":{"type":"Point","coordinates":[129.6643139,33.30724444]}},{"type":"Feature","properties":{"name":"デイサービスセンター老福荘","address":"長崎県佐世保市江迎町赤坂282-24","muni":"佐世保市","hazards":["洪水","土砂災害","津波"],"kind":"指定緊急避難場所"},"geometry":{"type":"Point","coordinates":[129.640384,33.296646]}},{"type":"Feature","properties":{"name":"江迎小学校","address":"長崎県佐世保市江迎町中尾126","muni":"佐世保市","hazards":["洪水","土砂災害","地震","津波","大規模な火事"],"kind":"指定緊急避難場所"},"geometry":{"type":"Point","coordinates":[129.6346778,33.30932222]}},{"type":"Feature","properties":{"name":"猪調小学校","address":"長崎県佐世保市江迎町猪調1000","muni":"佐世保市","hazards":["洪水","土砂災害","地震","大規模な火事"],"kind":"指定緊急避難場所"},"geometry":{"type":"Point","coordinates":[129.6700889,33.28489722]}},{"type":"Feature","properties":{"name":"猪調公園","address":"長崎県佐世保市江迎町猪調1312","muni":"佐世保市","hazards":["地震","津波","大規模な火事"],"kind":"指定緊急避難場所"},"geometry":{"type":"Point","coordinates":[129.6745639,33.28616111]}},{"type":"Feature","properties":{"name":"江迎地区コミュニティセンター","address":"長崎県佐世保市江迎町長坂104","muni":"佐世保市","hazards":["土砂災害"],"kind":"指定緊急避難場所"},"geometry":{"type":"Point","coordinates":[129.6318611,33.30706389]}},{"type":"Feature","properties":{"name":"江迎中央公園","address":"長崎県佐世保市江迎町長坂320","muni":"佐世保市","hazards":["地震","津波","大規模な火事"],"kind":"指定緊急避難場所"},"geometry":{"type":"Point","coordinates":[129.63,33.30995278]}},{"type":"Feature","properties":{"name":"岩下公園","address":"長崎県佐世保市江迎町田ノ元1008-6","muni":"佐世保市","hazards":["地震","津波","大規模な火事"],"kind":"指定緊急避難場所"},"geometry":{"type":"Point","coordinates":[129.68284797249,33.283784114385]}},{"type":"Feature","properties":{"name":"江迎地区文化会館","address":"長崎県佐世保市江迎町田ノ元265-1","muni":"佐世保市","hazards":["洪水","土砂災害"],"kind":"指定緊急避難場所"},"geometry":{"type":"Point","coordinates":[129.6847722,33.28141389]}},{"type":"Feature","properties":{"name":"高岩公園","address":"長崎県佐世保市江迎町北平3-10","muni":"佐世保市","hazards":["地震","津波","大規模な火事"],"kind":"指定緊急避難場所"},"geometry":{"type":"Point","coordinates":[129.6377556,33.30109167]}},{"type":"Feature","properties":{"name":"才木公園","address":"長崎県佐世保市江迎町末橘1206-1","muni":"佐世保市","hazards":["地震","津波","大規模な火事"],"kind":"指定緊急避難場所"},"geometry":{"type":"Point","coordinates":[129.6243778,33.31830556]}},{"type":"Feature","properties":{"name":"江迎中学校","address":"長崎県佐世保市江迎町乱橋584","muni":"佐世保市","hazards":["土砂災害","地震","大規模な火事"],"kind":"指定緊急避難場所"},"geometry":{"type":"Point","coordinates":[129.6374861,33.29663889]}},{"type":"Feature","properties":{"name":"東明中学校","address":"長崎県佐世保市江上町814","muni":"佐世保市","hazards":["土砂災害","地震","津波","大規模な火事"],"kind":"指定緊急避難場所"},"geometry":{"type":"Point","coordinates":[129.76965210266,33.108787007634]}},{"type":"Feature","properties":{"name":"東明公園","address":"長崎県佐世保市江上町926-3","muni":"佐世保市","hazards":["地震","大規模な火事"],"kind":"指定緊急避難場所"},"geometry":{"type":"Point","coordinates":[129.7700167,33.10365278]}},{"type":"Feature","properties":{"name":"相浦小学校高島分校","address":"長崎県佐世保市高島町336","muni":"佐世保市","hazards":["土砂災害","地震","津波","大規模な火事"],"kind":"指定緊急避難場所"},"geometry":{"type":"Point","coordinates":[129.5891278,33.16449167]}},{"type":"Feature","properties":{"name":"妙見公園","address":"長崎県佐世保市高梨町446","muni":"佐世保市","hazards":["地震","津波","大規模な火事"],"kind":"指定緊急避難場所"},"geometry":{"type":"Point","coordinates":[129.7270083,33.17524444]}},{"type":"Feature","properties":{"name":"黒島小中学校","address":"長崎県佐世保市黒島町2608-10","muni":"佐世保市","hazards":["土砂災害","地震","大規模な火事"],"kind":"指定緊急避難場所"},"geometry":{"type":"Point","coordinates":[129.5397528,33.14358056]}},{"type":"Feature","properties":{"name":"黒島地区コミュニティセンター","address":"長崎県佐世保市黒島町3175","muni":"佐世保市","hazards":["土砂災害"],"kind":"指定緊急避難場所"},"geometry":{"type":"Point","coordinates":[129.5344806,33.14178611]}},{"type":"Feature","properties":{"name":"上木場公園","address":"長崎県佐世保市黒髪町2406","muni":"佐世保市","hazards":["地震","津波","大規模な火事"],"kind":"指定緊急避難場所"},"geometry":{"type":"Point","coordinates":[129.7858417,33.17318333]}},{"type":"Feature","properties":{"name":"黒髪第二公園","address":"長崎県佐世保市黒髪町4899-116","muni":"佐世保市","hazards":["地震","津波","大規模な火事"],"kind":"指定緊急避難場所"},"geometry":{"type":"Point","coordinates":[129.7710611,33.17021667]}},{"type":"Feature","properties":{"name":"黒髪小学校","address":"長崎県佐世保市黒髪町52-1","muni":"佐世保市","hazards":["土砂災害","地震","大規模な火事"],"kind":"指定緊急避難場所"},"geometry":{"type":"Point","coordinates":[129.7756694,33.16414444]}},{"type":"Feature","properties":{"name":"椿ヶ丘公園","address":"長崎県佐世保市黒髪町6233-3","muni":"佐世保市","hazards":["地震","津波","大規模な火事"],"kind":"指定緊急避難場所"},"geometry":{"type":"Point","coordinates":[129.7796444,33.16308889]}},{"type":"Feature","properties":{"name":"黒髪第一公園","address":"長崎県佐世保市黒髪町6361-1","muni":"佐世保市","hazards":["地震","津波","大規模な火事"],"kind":"指定緊急避難場所"},"geometry":{"type":"Point","coordinates":[129.7795667,33.16507222]}},{"type":"Feature","properties":{"name":"崎岡西公園","address":"長崎県佐世保市崎岡町971-1","muni":"佐世保市","hazards":["地震","大規模な火事"],"kind":"指定緊急避難場所"},"geometry":{"type":"Point","coordinates":[129.7983639,33.11770833]}},{"type":"Feature","properties":{"name":"桜木公園","address":"長崎県佐世保市桜木町694-1","muni":"佐世保市","hazards":["地震","津波","大規模な火事"],"kind":"指定緊急避難場所"},"geometry":{"type":"Point","coordinates":[129.7273972,33.20141944]}},{"type":"Feature","properties":{"name":"桜木やまんた公園","address":"長崎県佐世保市桜木町918-6","muni":"佐世保市","hazards":["地震","津波","大規模な火事"],"kind":"指定緊急避難場所"},"geometry":{"type":"Point","coordinates":[129.7335917,33.19892778]}},{"type":"Feature","properties":{"name":"アルカスＳＡＳＥＢＯ","address":"長崎県佐世保市三浦町2-3","muni":"佐世保市","hazards":["洪水","地震","津波"],"kind":"指定緊急避難場所"},"geometry":{"type":"Point","coordinates":[129.724213,33.165546]}},{"type":"Feature","properties":{"name":"テクノパーク第一公園","address":"長崎県佐世保市三川内新町１－２０外","muni":"佐世保市","hazards":["地震","津波","大規模な火事"],"kind":"指定緊急避難場所"},"geometry":{"type":"Point","coordinates":[129.8425444,33.13942222]}},{"type":"Feature","properties":{"name":"三川内山公園","address":"長崎県佐世保市三川内町1092-1","muni":"佐世保市","hazards":["地震","津波","大規模な火事"],"kind":"指定緊急避難場所"},"geometry":{"type":"Point","coordinates":[129.8329972,33.13411667]}},{"type":"Feature","properties":{"name":"三川内運動広場","address":"長崎県佐世保市三川内町987","muni":"佐世保市","hazards":["地震","津波","大規模な火事"],"kind":"指定緊急避難場所"},"geometry":{"type":"Point","coordinates":[129.82782,33.153388]}},{"type":"Feature","properties":{"name":"三川内地区コミュニティセンター","address":"長崎県佐世保市三川内本町289-1","muni":"佐世保市","hazards":["洪水","土砂災害"],"kind":"指定緊急避難場所"},"geometry":{"type":"Point","coordinates":[129.8293139,33.15274722]}},{"type":"Feature","properties":{"name":"三川内焼伝統産業会館","address":"長崎県佐世保市三川内本町343","muni":"佐世保市","hazards":["洪水","土砂災害","津波"],"kind":"指定緊急避難場所"},"geometry":{"type":"Point","coordinates":[129.8294556,33.15373889]}},{"type":"Feature","properties":{"name":"三川内地区コミュニティセンター　体育室","address":"長崎県佐世保市三川内本町358-1","muni":"佐世保市","hazards":["土砂災害"],"kind":"指定緊急避難場所"},"geometry":{"type":"Point","coordinates":[129.8302722,33.15457778]}},{"type":"Feature","properties":{"name":"三川内中央運動公園","address":"長崎県佐世保市三川内本町380-1","muni":"佐世保市","hazards":["地震","津波","大規模な火事"],"kind":"指定緊急避難場所"},"geometry":{"type":"Point","coordinates":[129.8278556,33.15335556]}},{"type":"Feature","properties":{"name":"白南風小学校","address":"長崎県佐世保市山祇町387","muni":"佐世保市","hazards":["土砂災害","地震","大規模な火事"],"kind":"指定緊急避難場所"},"geometry":{"type":"Point","coordinates":[129.7331694,33.16787222]}},{"type":"Feature","properties":{"name":"山手小学校","address":"長崎県佐世保市山手町16-38","muni":"佐世保市","hazards":["洪水","土砂災害","地震","大規模な火事"],"kind":"指定緊急避難場所"},"geometry":{"type":"Point","coordinates":[129.7264639,33.18654444]}},{"type":"Feature","properties":{"name":"江上地区コミュニティセンター","address":"長崎県佐世保市指方町1759","muni":"佐世保市","hazards":["土砂災害"],"kind":"指定緊急避難場所"},"geometry":{"type":"Point","coordinates":[129.7834389,33.10856944]}},{"type":"Feature","properties":{"name":"江上公園","address":"長崎県佐世保市指方町2230-2","muni":"佐世保市","hazards":["地震","大規模な火事"],"kind":"指定緊急避難場所"},"geometry":{"type":"Point","coordinates":[129.7834056,33.10815833]}},{"type":"Feature","properties":{"name":"江上小学校","address":"長崎県佐世保市指方町2382","muni":"佐世保市","hazards":["土砂災害","地震","大規模な火事"],"kind":"指定緊急避難場所"},"geometry":{"type":"Point","coordinates":[129.7782167,33.10923333]}},{"type":"Feature","properties":{"name":"岩下公園","address":"長崎県佐世保市指方町3788-141","muni":"佐世保市","hazards":["地震","大規模な火事"],"kind":"指定緊急避難場所"},"geometry":{"type":"Point","coordinates":[129.7905333,33.09728333]}},{"type":"Feature","properties":{"name":"旧ポリテクセンター体育館","address":"長崎県佐世保市指方町692-1","muni":"佐世保市","hazards":["土砂災害"],"kind":"指定緊急避難場所"},"geometry":{"type":"Point","coordinates":[129.79140544666,33.114498110161]}},{"type":"Feature","properties":{"name":"枇杷坂公園","address":"長崎県佐世保市指方町766-5","muni":"佐世保市","hazards":["地震","大規模な火事"],"kind":"指定緊急避難場所"},"geometry":{"type":"Point","coordinates":[129.7885194,33.11299167]}},{"type":"Feature","properties":{"name":"赤崎小学校","address":"長崎県佐世保市鹿子前町330","muni":"佐世保市","hazards":["土砂災害","地震","大規模な火事"],"kind":"指定緊急避難場所"},"geometry":{"type":"Point","coordinates":[129.688225,33.16066111]}},{"type":"Feature","properties":{"name":"鹿子前園地","address":"長崎県佐世保市鹿子前町918-1","muni":"佐世保市","hazards":["地震","大規模な火事"],"kind":"指定緊急避難場所"},"geometry":{"type":"Point","coordinates":[129.6822778,33.16204167]}},{"type":"Feature","properties":{"name":"鹿町中学校","address":"長崎県佐世保市鹿町町下歌ヶ浦1-16","muni":"佐世保市","hazards":["土砂災害","地震","津波","大規模な火事"],"kind":"指定緊急避難場所"},"geometry":{"type":"Point","coordinates":[129.5897111,33.27859722]}},{"type":"Feature","properties":{"name":"歌浦小学校","address":"長崎県佐世保市鹿町町下歌ヶ浦791-11","muni":"佐世保市","hazards":["土砂災害","地震","大規模な火事"],"kind":"指定緊急避難場所"},"geometry":{"type":"Point","coordinates":[129.5815556,33.26636667]}},{"type":"Feature","properties":{"name":"鹿町地区コミュニティセンター","address":"長崎県佐世保市鹿町町下歌ヶ浦8-37","muni":"佐世保市","hazards":["土砂災害"],"kind":"指定緊急避難場所"},"geometry":{"type":"Point","coordinates":[129.5933194,33.27826944]}},{"type":"Feature","properties":{"name":"明星公園","address":"長崎県佐世保市鹿町町上歌ヶ浦219-2","muni":"佐世保市","hazards":["地震","津波","大規模な火事"],"kind":"指定緊急避難場所"},"geometry":{"type":"Point","coordinates":[129.6026472,33.25734167]}},{"type":"Feature","properties":{"name":"戸石川公園","address":"長崎県佐世保市鹿町町深江553-10","muni":"佐世保市","hazards":["地震","津波","大規模な火事"],"kind":"指定緊急避難場所"},"geometry":{"type":"Point","coordinates":[129.6196833,33.30273889]}},{"type":"Feature","properties":{"name":"鹿町小学校","address":"長崎県佐世保市鹿町町深江730-1","muni":"佐世保市","hazards":["洪水","土砂災害","地震","大規模な火事"],"kind":"指定緊急避難場所"},"geometry":{"type":"Point","coordinates":[129.6160139,33.29811111]}},{"type":"Feature","properties":{"name":"長串山公園","address":"長崎県佐世保市鹿町町長串１７４－１２外","muni":"佐世保市","hazards":["地震","津波","大規模な火事"],"kind":"指定緊急避難場所"},"geometry":{"type":"Point","coordinates":[129.5784278,33.25633889]}},{"type":"Feature","properties":{"name":"県立鹿町工業高等学校","address":"長崎県佐世保市鹿町町土肥ノ浦110","muni":"佐世保市","hazards":["土砂災害","地震","大規模な火事"],"kind":"指定緊急避難場所"},"geometry":{"type":"Point","coordinates":[129.6172472,33.30579722]}},{"type":"Feature","properties":{"name":"若竹台北公園","address":"長崎県佐世保市若竹台町265","muni":"佐世保市","hazards":["地震","津波","大規模な火事"],"kind":"指定緊急避難場所"},"geometry":{"type":"Point","coordinates":[129.7892556,33.1479]}},{"type":"Feature","properties":{"name":"若竹台中央公園","address":"長崎県佐世保市若竹台町312","muni":"佐世保市","hazards":["地震","津波","大規模な火事"],"kind":"指定緊急避難場所"},"geometry":{"type":"Point","coordinates":[129.7876972,33.14615556]}},{"type":"Feature","properties":{"name":"崎辺地区コミュニティセンター","address":"長崎県佐世保市十郎新町3-7","muni":"佐世保市","hazards":["土砂災害"],"kind":"指定緊急避難場所"},"geometry":{"type":"Point","coordinates":[129.7395806,33.13830833]}},{"type":"Feature","properties":{"name":"広田中学校","address":"長崎県佐世保市重尾町188","muni":"佐世保市","hazards":["土砂災害","地震","津波","大規模な火事"],"kind":"指定緊急避難場所"},"geometry":{"type":"Point","coordinates":[129.809952,33.124649]}},{"type":"Feature","properties":{"name":"県立佐世保東翔高等学校","address":"長崎県佐世保市重尾町425-3","muni":"佐世保市","hazards":["土砂災害","地震","大規模な火事"],"kind":"指定緊急避難場所"},"geometry":{"type":"Point","coordinates":[129.8161694,33.12605]}},{"type":"Feature","properties":{"name":"広田地区コミュニティセンター","address":"長崎県佐世保市重尾町63","muni":"佐世保市","hazards":["土砂災害","津波"],"kind":"指定緊急避難場所"},"geometry":{"type":"Point","coordinates":[129.8074167,33.124475]}},{"type":"Feature","properties":{"name":"北地区コミュニティセンター","address":"長崎県佐世保市春日町18-9","muni":"佐世保市","hazards":["洪水","土砂災害","津波"],"kind":"指定緊急避難場所"},"geometry":{"type":"Point","coordinates":[129.7230917,33.19820833]}},{"type":"Feature","properties":{"name":"西海学園高等学校","address":"長崎県佐世保市春日町29-22","muni":"佐世保市","hazards":["土砂災害","地震","大規模な火事"],"kind":"指定緊急避難場所"},"geometry":{"type":"Point","coordinates":[129.7217167,33.20066111]}},{"type":"Feature","properties":{"name":"春日公園","address":"長崎県佐世保市春日町318","muni":"佐世保市","hazards":["地震","津波","大規模な火事"],"kind":"指定緊急避難場所"},"geometry":{"type":"Point","coordinates":[129.7232167,33.19979722]}},{"type":"Feature","properties":{"name":"春日第二公園","address":"長崎県佐世保市春日町476-2","muni":"佐世保市","hazards":["地震","津波","大規模な火事"],"kind":"指定緊急避難場所"},"geometry":{"type":"Point","coordinates":[129.723775,33.19835833]}},{"type":"Feature","properties":{"name":"勝富公園","address":"長崎県佐世保市勝富町1000-9","muni":"佐世保市","hazards":["地震","津波","大規模な火事"],"kind":"指定緊急避難場所"},"geometry":{"type":"Point","coordinates":[129.728425,33.17350556]}},{"type":"Feature","properties":{"name":"小佐々スポーツセンター","address":"長崎県佐世保市小佐々町黒石523-1","muni":"佐世保市","hazards":["洪水","土砂災害"],"kind":"指定緊急避難場所"},"geometry":{"type":"Point","coordinates":[129.628183,33.21459]}},{"type":"Feature","properties":{"name":"小佐々中学校","address":"長崎県佐世保市小佐々町西川内132","muni":"佐世保市","hazards":["土砂災害","地震","津波","大規模な火事"],"kind":"指定緊急避難場所"},"geometry":{"type":"Point","coordinates":[129.6001417,33.21375]}},{"type":"Feature","properties":{"name":"小佐々地区コミュニティセンター","address":"長崎県佐世保市小佐々町西川内172-3","muni":"佐世保市","hazards":["洪水","土砂災害","津波"],"kind":"指定緊急避難場所"},"geometry":{"type":"Point","coordinates":[129.599076,33.214976]}},{"type":"Feature","properties":{"name":"小佐々小学校","address":"長崎県佐世保市小佐々町田原290-1","muni":"佐世保市","hazards":["土砂災害","地震","大規模な火事"],"kind":"指定緊急避難場所"},"geometry":{"type":"Point","coordinates":[129.619183,33.226752]}},{"type":"Feature","properties":{"name":"楠栖小学校","address":"長崎県佐世保市小佐々町楠泊526","muni":"佐世保市","hazards":["土砂災害","地震","津波","大規模な火事"],"kind":"指定緊急避難場所"},"geometry":{"type":"Point","coordinates":[129.5737417,33.21897222]}},{"type":"Feature","properties":{"name":"冷水岳園地","address":"長崎県佐世保市小佐々町矢岳１６１８－１２外","muni":"佐世保市","hazards":["地震","津波","大規模な火事"],"kind":"指定緊急避難場所"},"geometry":{"type":"Point","coordinates":[129.5842417,33.23428056]}},{"type":"Feature","properties":{"name":"小佐世保小学校","address":"長崎県佐世保市小佐世保町18-1","muni":"佐世保市","hazards":["洪水","土砂災害","地震","津波","大規模な火事"],"kind":"指定緊急避難場所"},"geometry":{"type":"Point","coordinates":[129.7347556,33.17648611]}},{"type":"Feature","properties":{"name":"県立ろう学校佐世保分教室","address":"長崎県佐世保市小舟町60","muni":"佐世保市","hazards":["土砂災害","地震","大規模な火事"],"kind":"指定緊急避難場所"},"geometry":{"type":"Point","coordinates":[129.7594278,33.20789167]}},{"type":"Feature","properties":{"name":"小島公園","address":"長崎県佐世保市小島町167-1","muni":"佐世保市","hazards":["地震","津波","大規模な火事"],"kind":"指定緊急避難場所"},"geometry":{"type":"Point","coordinates":[129.7012639,33.16555556]}},{"type":"Feature","properties":{"name":"松浦公園","address":"長崎県佐世保市松浦町1000-5","muni":"佐世保市","hazards":["地震","大規模な火事"],"kind":"指定緊急避難場所"},"geometry":{"type":"Point","coordinates":[129.7178583,33.17454722]}},{"type":"Feature","properties":{"name":"聖和女子学院高等学校","address":"長崎県佐世保市松山町495","muni":"佐世保市","hazards":["洪水","土砂災害","地震","大規模な火事"],"kind":"指定緊急避難場所"},"geometry":{"type":"Point","coordinates":[129.7223889,33.19176111]}},{"type":"Feature","properties":{"name":"松山公園","address":"長崎県佐世保市松山町３００－２外","muni":"佐世保市","hazards":["地震","津波","大規模な火事"],"kind":"指定緊急避難場所"},"geometry":{"type":"Point","coordinates":[129.7269361,33.19350833]}},{"type":"Feature","properties":{"name":"大野中学校","address":"長崎県佐世保市松瀬町838","muni":"佐世保市","hazards":["土砂災害","地震","大規模な火事"],"kind":"指定緊急避難場所"},"geometry":{"type":"Point","coordinates":[129.7267889,33.210375]}},{"type":"Feature","properties":{"name":"相浦小学校","address":"長崎県佐世保市上相浦町3-9","muni":"佐世保市","hazards":["土砂災害","地震","大規模な火事"],"kind":"指定緊急避難場所"},"geometry":{"type":"Point","coordinates":[129.6678889,33.19324167]}},{"type":"Feature","properties":{"name":"桧台第一公園","address":"長崎県佐世保市上本山町1-460","muni":"佐世保市","hazards":["地震","津波","大規模な火事"],"kind":"指定緊急避難場所"},"geometry":{"type":"Point","coordinates":[129.6912194,33.21156944]}},{"type":"Feature","properties":{"name":"桧台第二公園","address":"長崎県佐世保市上本山町1-465","muni":"佐世保市","hazards":["地震","津波","大規模な火事"],"kind":"指定緊急避難場所"},"geometry":{"type":"Point","coordinates":[129.6880389,33.21195278]}},{"type":"Feature","properties":{"name":"中里皆瀬地区コミュニティセンター","address":"長崎県佐世保市上本山町1228-1","muni":"佐世保市","hazards":["土砂災害"],"kind":"指定緊急避難場所"},"geometry":{"type":"Point","coordinates":[129.6955806,33.210625]}},{"type":"Feature","properties":{"name":"柚木小学校","address":"長崎県佐世保市上柚木町3204","muni":"佐世保市","hazards":["土砂災害","地震","大規模な火事"],"kind":"指定緊急避難場所"},"geometry":{"type":"Point","coordinates":[129.7737972,33.21293611]}},{"type":"Feature","properties":{"name":"宮中学校","address":"長崎県佐世保市城間町338","muni":"佐世保市","hazards":["土砂災害","地震","大規模な火事"],"kind":"指定緊急避難場所"},"geometry":{"type":"Point","coordinates":[129.8150722,33.08759722]}},{"type":"Feature","properties":{"name":"宮地区コミュニティセンター","address":"長崎県佐世保市城間町345","muni":"佐世保市","hazards":["土砂災害"],"kind":"指定緊急避難場所"},"geometry":{"type":"Point","coordinates":[129.8148194,33.08686944]}},{"type":"Feature","properties":{"name":"まちなかコミュニティセンター","address":"長崎県佐世保市常盤町6-1","muni":"佐世保市","hazards":["土砂災害"],"kind":"指定緊急避難場所"},"geometry":{"type":"Point","coordinates":[129.7187528,33.17378333]}},{"type":"Feature","properties":{"name":"三川内中学校","address":"長崎県佐世保市新行江町957","muni":"佐世保市","hazards":["土砂災害","地震","大規模な火事"],"kind":"指定緊急避難場所"},"geometry":{"type":"Point","coordinates":[129.83375,33.15521389]}},{"type":"Feature","properties":{"name":"新田公園","address":"長崎県佐世保市新田町403-7","muni":"佐世保市","hazards":["地震","津波","大規模な火事"],"kind":"指定緊急避難場所"},"geometry":{"type":"Point","coordinates":[129.6743083,33.18866944]}},{"type":"Feature","properties":{"name":"上相浦公園","address":"長崎県佐世保市新田町67-4","muni":"佐世保市","hazards":["地震","大規模な火事"],"kind":"指定緊急避難場所"},"geometry":{"type":"Point","coordinates":[129.6700833,33.19526944]}},{"type":"Feature","properties":{"name":"神島公園","address":"長崎県佐世保市神島町99-1","muni":"佐世保市","hazards":["地震","津波","大規模な火事"],"kind":"指定緊急避難場所"},"geometry":{"type":"Point","coordinates":[129.7054556,33.16718333]}},{"type":"Feature","properties":{"name":"針尾地区コミュニティセンター","address":"長崎県佐世保市針尾中町1538-5","muni":"佐世保市","hazards":["土砂災害"],"kind":"指定緊急避難場所"},"geometry":{"type":"Point","coordinates":[129.7560833,33.07778333]}},{"type":"Feature","properties":{"name":"針尾小学校","address":"長崎県佐世保市針尾中町1863","muni":"佐世保市","hazards":["土砂災害","地震","津波","大規模な火事"],"kind":"指定緊急避難場所"},"geometry":{"type":"Point","coordinates":[129.7546889,33.082225]}},{"type":"Feature","properties":{"name":"西海橋公園","address":"長崎県佐世保市針尾東町２６７８外","muni":"佐世保市","hazards":["地震","津波","大規模な火事"],"kind":"指定緊急避難場所"},"geometry":{"type":"Point","coordinates":[129.7569556,33.05546389]}},{"type":"Feature","properties":{"name":"大崎公園","address":"長崎県佐世保市針尾北町2157-9","muni":"佐世保市","hazards":["地震","津波","大規模な火事"],"kind":"指定緊急避難場所"},"geometry":{"type":"Point","coordinates":[129.74825,33.11850556]}},{"type":"Feature","properties":{"name":"針尾地区コミュニティセンター　体育室","address":"長崎県佐世保市針尾北町756","muni":"佐世保市","hazards":["洪水","土砂災害","津波"],"kind":"指定緊急避難場所"},"geometry":{"type":"Point","coordinates":[129.75604929392,33.100259486338]}},{"type":"Feature","properties":{"name":"浦頭引揚記念平和公園","address":"長崎県佐世保市針尾北町８２４外","muni":"佐世保市","hazards":["地震","津波","大規模な火事"],"kind":"指定緊急避難場所"},"geometry":{"type":"Point","coordinates":[129.7577083,33.10051111]}},{"type":"Feature","properties":{"name":"早岐中学校","address":"長崎県佐世保市陣の内町100","muni":"佐世保市","hazards":["洪水","土砂災害","地震","大規模な火事"],"kind":"指定緊急避難場所"},"geometry":{"type":"Point","coordinates":[129.7970056,33.14335]}},{"type":"Feature","properties":{"name":"陣の内公園","address":"長崎県佐世保市陣の内町883","muni":"佐世保市","hazards":["地震","津波","大規模な火事"],"kind":"指定緊急避難場所"},"geometry":{"type":"Point","coordinates":[129.7910472,33.14923611]}},{"type":"Feature","properties":{"name":"須佐公園","address":"長崎県佐世保市須佐町57","muni":"佐世保市","hazards":["地震","津波","大規模な火事"],"kind":"指定緊急避難場所"},"geometry":{"type":"Point","coordinates":[129.7305722,33.17621389]}},{"type":"Feature","properties":{"name":"潮見小学校","address":"長崎県佐世保市須田尾町19-44","muni":"佐世保市","hazards":["土砂災害","地震","大規模な火事"],"kind":"指定緊急避難場所"},"geometry":{"type":"Point","coordinates":[129.7343389,33.16471667]}},{"type":"Feature","properties":{"name":"山澄中学校","address":"長崎県佐世保市須田尾町232","muni":"佐世保市","hazards":["土砂災害","地震","大規模な火事"],"kind":"指定緊急避難場所"},"geometry":{"type":"Point","coordinates":[129.7359722,33.16640556]}},{"type":"Feature","properties":{"name":"世知原中学校","address":"長崎県佐世保市世知原町栗迎132-1","muni":"佐世保市","hazards":["洪水","土砂災害","地震","津波","大規模な火事"],"kind":"指定緊急避難場所"},"geometry":{"type":"Point","coordinates":[129.7530667,33.25461944]}},{"type":"Feature","properties":{"name":"世知原小学校","address":"長崎県佐世保市世知原町栗迎194-1","muni":"佐世保市","hazards":["土砂災害","地震","大規模な火事"],"kind":"指定緊急避難場所"},"geometry":{"type":"Point","coordinates":[129.7535444,33.25674722]}},{"type":"Feature","properties":{"name":"世知原地区コミュニティセンター","address":"長崎県佐世保市世知原町栗迎246-1","muni":"佐世保市","hazards":["土砂災害"],"kind":"指定緊急避難場所"},"geometry":{"type":"Point","coordinates":[129.75168522588,33.257698563416]}},{"type":"Feature","properties":{"name":"板山公園","address":"長崎県佐世保市世知原町上野原２３９５－７外","muni":"佐世保市","hazards":["地震","津波","大規模な火事"],"kind":"指定緊急避難場所"},"geometry":{"type":"Point","coordinates":[129.7494528,33.23174167]}},{"type":"Feature","properties":{"name":"瀬戸越公園","address":"長崎県佐世保市瀬戸越3-1666-4","muni":"佐世保市","hazards":["地震","津波","大規模な火事"],"kind":"指定緊急避難場所"},"geometry":{"type":"Point","coordinates":[129.7289056,33.20521389]}},{"type":"Feature","properties":{"name":"春日小学校","address":"長崎県佐世保市瀬戸越3-19-1","muni":"佐世保市","hazards":["洪水","土砂災害","地震","津波","大規模な火事"],"kind":"指定緊急避難場所"},"geometry":{"type":"Point","coordinates":[129.728468,33.202692]}},{"type":"Feature","properties":{"name":"県立佐世保工業高等学校","address":"長崎県佐世保市瀬戸越3-3-30","muni":"佐世保市","hazards":["土砂災害","地震","大規模な火事"],"kind":"指定緊急避難場所"},"geometry":{"type":"Point","coordinates":[129.7299361,33.20808056]}},{"type":"Feature","properties":{"name":"眼鏡岩公園","address":"長崎県佐世保市瀬戸越町1266-1","muni":"佐世保市","hazards":["地震","津波","大規模な火事"],"kind":"指定緊急避難場所"},"geometry":{"type":"Point","coordinates":[129.719992,33.203531]}},{"type":"Feature","properties":{"name":"星和第一公園","address":"長崎県佐世保市星和台町1460-332","muni":"佐世保市","hazards":["地震","津波","大規模な火事"],"kind":"指定緊急避難場所"},"geometry":{"type":"Point","coordinates":[129.6770694,33.17493056]}},{"type":"Feature","properties":{"name":"赤崎台第一公園","address":"長崎県佐世保市赤崎町1450-1","muni":"佐世保市","hazards":["地震","津波","大規模な火事"],"kind":"指定緊急避難場所"},"geometry":{"type":"Point","coordinates":[129.6924694,33.15885833]}},{"type":"Feature","properties":{"name":"愛宕中学校","address":"長崎県佐世保市赤崎町483-2","muni":"佐世保市","hazards":["土砂災害","地震","津波","大規模な火事"],"kind":"指定緊急避難場所"},"geometry":{"type":"Point","coordinates":[129.69707598228,33.157098713656]}},{"type":"Feature","properties":{"name":"愛宕地区コミュニティセンター","address":"長崎県佐世保市赤崎町596-26","muni":"佐世保市","hazards":["土砂災害"],"kind":"指定緊急避難場所"},"geometry":{"type":"Point","coordinates":[129.6953917,33.15556389]}},{"type":"Feature","properties":{"name":"泉水田公園","address":"長崎県佐世保市赤崎町630","muni":"佐世保市","hazards":["地震","津波","大規模な火事"],"kind":"指定緊急避難場所"},"geometry":{"type":"Point","coordinates":[129.6952667,33.15523611]}},{"type":"Feature","properties":{"name":"赤崎公園","address":"長崎県佐世保市赤崎町857","muni":"佐世保市","hazards":["地震","津波","大規模な火事"],"kind":"指定緊急避難場所"},"geometry":{"type":"Point","coordinates":[129.6999806,33.15452222]}},{"type":"Feature","properties":{"name":"長崎県立大学佐世保校","address":"長崎県佐世保市川下町123","muni":"佐世保市","hazards":["土砂災害","地震","大規模な火事"],"kind":"指定緊急避難場所"},"geometry":{"type":"Point","coordinates":[129.6666167,33.18688611]}},{"type":"Feature","properties":{"name":"相浦地区コミュニティセンター","address":"長崎県佐世保市川下町209-5","muni":"佐世保市","hazards":["土砂災害"],"kind":"指定緊急避難場所"},"geometry":{"type":"Point","coordinates":[129.66823856129,33.186276287825]}},{"type":"Feature","properties":{"name":"相浦中学校","address":"長崎県佐世保市川下町277","muni":"佐世保市","hazards":["土砂災害","地震","大規模な火事"],"kind":"指定緊急避難場所"},"geometry":{"type":"Point","coordinates":[129.6685778,33.19036389]}},{"type":"Feature","properties":{"name":"浅子公園","address":"長崎県佐世保市浅子町188-14","muni":"佐世保市","hazards":["地震","大規模な火事"],"kind":"指定緊急避難場所"},"geometry":{"type":"Point","coordinates":[129.6234472,33.19551944]}},{"type":"Feature","properties":{"name":"浅子小中学校","address":"長崎県佐世保市浅子町58","muni":"佐世保市","hazards":["土砂災害","地震","津波","大規模な火事"],"kind":"指定緊急避難場所"},"geometry":{"type":"Point","coordinates":[129.6259944,33.20325278]}},{"type":"Feature","properties":{"name":"西海国立公園九十九島動植物園（駐車場）","address":"長崎県佐世保市船越町2172","muni":"佐世保市","hazards":["地震","津波","大規模な火事"],"kind":"指定緊急避難場所"},"geometry":{"type":"Point","coordinates":[129.6901194,33.15155]}},{"type":"Feature","properties":{"name":"船越小学校","address":"長崎県佐世保市船越町759","muni":"佐世保市","hazards":["土砂災害","地震","津波","大規模な火事"],"kind":"指定緊急避難場所"},"geometry":{"type":"Point","coordinates":[129.6904833,33.14587222]}},{"type":"Feature","properties":{"name":"早岐公園","address":"長崎県佐世保市早岐1-377-1","muni":"佐世保市","hazards":["地震","大規模な火事"],"kind":"指定緊急避難場所"},"geometry":{"type":"Point","coordinates":[129.7976278,33.13590556]}},{"type":"Feature","properties":{"name":"早岐地区コミュニティセンター","address":"長崎県佐世保市早岐1-6-38","muni":"佐世保市","hazards":["土砂災害"],"kind":"指定緊急避難場所"},"geometry":{"type":"Point","coordinates":[129.7975667,33.13631111]}},{"type":"Feature","properties":{"name":"早岐小学校","address":"長崎県佐世保市早岐2-32-12","muni":"佐世保市","hazards":["土砂災害","地震","津波","大規模な火事"],"kind":"指定緊急避難場所"},"geometry":{"type":"Point","coordinates":[129.7980417,33.13987222]}},{"type":"Feature","properties":{"name":"早苗公園","address":"長崎県佐世保市早苗町771","muni":"佐世保市","hazards":["地震","津波","大規模な火事"],"kind":"指定緊急避難場所"},"geometry":{"type":"Point","coordinates":[129.803425,33.14598056]}},{"type":"Feature","properties":{"name":"相浦西小学校","address":"長崎県佐世保市相浦町794","muni":"佐世保市","hazards":["洪水","土砂災害","地震","津波","大規模な火事"],"kind":"指定緊急避難場所"},"geometry":{"type":"Point","coordinates":[129.6625,33.19128889]}},{"type":"Feature","properties":{"name":"大岳台第二公園","address":"長崎県佐世保市大岳台町2-389","muni":"佐世保市","hazards":["地震","津波","大規模な火事"],"kind":"指定緊急避難場所"},"geometry":{"type":"Point","coordinates":[129.7626444,33.148675]}},{"type":"Feature","properties":{"name":"大岳台第三公園","address":"長崎県佐世保市大岳台町2-605","muni":"佐世保市","hazards":["地震","津波","大規模な火事"],"kind":"指定緊急避難場所"},"geometry":{"type":"Point","coordinates":[129.7640194,33.14568333]}},{"type":"Feature","properties":{"name":"大潟公園","address":"長崎県佐世保市大潟町135","muni":"佐世保市","hazards":["地震","津波","大規模な火事"],"kind":"指定緊急避難場所"},"geometry":{"type":"Point","coordinates":[129.6593222,33.18305556]}},{"type":"Feature","properties":{"name":"美崎が丘第二公園","address":"長崎県佐世保市大潟町254-46","muni":"佐世保市","hazards":["地震","津波","大規模な火事"],"kind":"指定緊急避難場所"},"geometry":{"type":"Point","coordinates":[129.6567944,33.17936667]}},{"type":"Feature","properties":{"name":"相浦西小学校大崎分校","address":"長崎県佐世保市大潟町467","muni":"佐世保市","hazards":["土砂災害","地震","津波","大規模な火事"],"kind":"指定緊急避難場所"},"geometry":{"type":"Point","coordinates":[129.64535,33.17344167]}},{"type":"Feature","properties":{"name":"福石小学校","address":"長崎県佐世保市大宮町32-1","muni":"佐世保市","hazards":["土砂災害","地震","大規模な火事"],"kind":"指定緊急避難場所"},"geometry":{"type":"Point","coordinates":[129.7426583,33.156375]}},{"type":"Feature","properties":{"name":"大黒公園","address":"長崎県佐世保市大黒町62-6","muni":"佐世保市","hazards":["地震","津波","大規模な火事"],"kind":"指定緊急避難場所"},"geometry":{"type":"Point","coordinates":[129.7358889,33.156]}},{"type":"Feature","properties":{"name":"大塔公園","address":"長崎県佐世保市大塔町2394-9","muni":"佐世保市","hazards":["地震","大規模な火事"],"kind":"指定緊急避難場所"},"geometry":{"type":"Point","coordinates":[129.7797917,33.14500278]}},{"type":"Feature","properties":{"name":"陽光台第一公園","address":"長崎県佐世保市大塔町648-187","muni":"佐世保市","hazards":["地震","津波","大規模な火事"],"kind":"指定緊急避難場所"},"geometry":{"type":"Point","coordinates":[129.7751056,33.15031111]}},{"type":"Feature","properties":{"name":"池野公園","address":"長崎県佐世保市大野町166-3","muni":"佐世保市","hazards":["地震","津波","大規模な火事"],"kind":"指定緊急避難場所"},"geometry":{"type":"Point","coordinates":[129.737325,33.21223333]}},{"type":"Feature","properties":{"name":"ひうみの丘公園","address":"長崎県佐世保市大和町545-1","muni":"佐世保市","hazards":["地震","津波","大規模な火事"],"kind":"指定緊急避難場所"},"geometry":{"type":"Point","coordinates":[129.7541194,33.15653056]}},{"type":"Feature","properties":{"name":"真申中央公園","address":"長崎県佐世保市棚方町207-21","muni":"佐世保市","hazards":["地震","大規模な火事"],"kind":"指定緊急避難場所"},"geometry":{"type":"Point","coordinates":[129.6550139,33.20841667]}},{"type":"Feature","properties":{"name":"棚方第一公園","address":"長崎県佐世保市棚方町405-122","muni":"佐世保市","hazards":["地震","津波","大規模な火事"],"kind":"指定緊急避難場所"},"geometry":{"type":"Point","coordinates":[129.6578944,33.20319722]}},{"type":"Feature","properties":{"name":"棚方第三公園","address":"長崎県佐世保市棚方町424-223","muni":"佐世保市","hazards":["地震","津波","大規模な火事"],"kind":"指定緊急避難場所"},"geometry":{"type":"Point","coordinates":[129.6526278,33.20027222]}},{"type":"Feature","properties":{"name":"棚方中央公園","address":"長崎県佐世保市棚方町675","muni":"佐世保市","hazards":["地震","津波","大規模な火事"],"kind":"指定緊急避難場所"},"geometry":{"type":"Point","coordinates":[129.6564639,33.19993611]}},{"type":"Feature","properties":{"name":"中央公園","address":"長崎県佐世保市谷郷町","muni":"佐世保市","hazards":["地震","津波","大規模な火事"],"kind":"指定緊急避難場所"},"geometry":{"type":"Point","coordinates":[129.7207444,33.177225]}},{"type":"Feature","properties":{"name":"知見寺公園","address":"長崎県佐世保市知見寺町１１４３－２外","muni":"佐世保市","hazards":["地震","津波","大規模な火事"],"kind":"指定緊急避難場所"},"geometry":{"type":"Point","coordinates":[129.7365722,33.22393889]}},{"type":"Feature","properties":{"name":"県立佐世保特別支援学校","address":"長崎県佐世保市竹辺町810","muni":"佐世保市","hazards":["洪水","土砂災害","地震","大規模な火事"],"kind":"指定緊急避難場所"},"geometry":{"type":"Point","coordinates":[129.6730667,33.1966]}},{"type":"Feature","properties":{"name":"中里小学校","address":"長崎県佐世保市中里町356","muni":"佐世保市","hazards":["洪水","土砂災害","地震","大規模な火事"],"kind":"指定緊急避難場所"},"geometry":{"type":"Point","coordinates":[129.6837611,33.20297778]}},{"type":"Feature","properties":{"name":"中里中学校","address":"長崎県佐世保市中里町905","muni":"佐世保市","hazards":["土砂災害","地震","大規模な火事"],"kind":"指定緊急避難場所"},"geometry":{"type":"Point","coordinates":[129.6902889,33.20453333]}},{"type":"Feature","properties":{"name":"山澄地区コミュニティセンター","address":"長崎県佐世保市潮見町14-14","muni":"佐世保市","hazards":["洪水","土砂災害","津波"],"kind":"指定緊急避難場所"},"geometry":{"type":"Point","coordinates":[129.7289722,33.16422222]}},{"type":"Feature","properties":{"name":"長坂公園","address":"長崎県佐世保市長坂町662-1","muni":"佐世保市","hazards":["地震","津波","大規模な火事"],"kind":"指定緊急避難場所"},"geometry":{"type":"Point","coordinates":[129.6908306,33.16691111]}},{"type":"Feature","properties":{"name":"長崎短期大学","address":"長崎県佐世保市椎木町600","muni":"佐世保市","hazards":["洪水","土砂災害","地震","大規模な火事"],"kind":"指定緊急避難場所"},"geometry":{"type":"Point","coordinates":[129.674325,33.18025556]}},{"type":"Feature","properties":{"name":"九州文化学園高等学校","address":"長崎県佐世保市椎木町600","muni":"佐世保市","hazards":["洪水","土砂災害","地震","大規模な火事"],"kind":"指定緊急避難場所"},"geometry":{"type":"Point","coordinates":[129.6723944,33.17979722]}},{"type":"Feature","properties":{"name":"総合グラウンド","address":"長崎県佐世保市椎木町無番地","muni":"佐世保市","hazards":["土砂災害","地震","大規模な火事"],"kind":"指定緊急避難場所"},"geometry":{"type":"Point","coordinates":[129.6673306,33.17928056]}},{"type":"Feature","properties":{"name":"天神小学校","address":"長崎県佐世保市天神1-11-13","muni":"佐世保市","hazards":["土砂災害","地震","大規模な火事"],"kind":"指定緊急避難場所"},"geometry":{"type":"Point","coordinates":[129.7390278,33.15009444]}},{"type":"Feature","properties":{"name":"天神公園","address":"長崎県佐世保市天神町1131","muni":"佐世保市","hazards":["地震","津波","大規模な火事"],"kind":"指定緊急避難場所"},"geometry":{"type":"Point","coordinates":[129.7318139,33.14823889]}},{"type":"Feature","properties":{"name":"港小学校","address":"長崎県佐世保市天神町1603","muni":"佐世保市","hazards":["土砂災害","地震","津波","大規模な火事"],"kind":"指定緊急避難場所"},"geometry":{"type":"Point","coordinates":[129.7296444,33.13964167]}},{"type":"Feature","properties":{"name":"崎辺中学校","address":"長崎県佐世保市天神町1706","muni":"佐世保市","hazards":["土砂災害","地震","津波","大規模な火事"],"kind":"指定緊急避難場所"},"geometry":{"type":"Point","coordinates":[129.731925,33.14053611]}},{"type":"Feature","properties":{"name":"大野地区コミュニティセンター","address":"長崎県佐世保市田原町13-29","muni":"佐世保市","hazards":["土砂災害"],"kind":"指定緊急避難場所"},"geometry":{"type":"Point","coordinates":[129.7211667,33.20851389]}},{"type":"Feature","properties":{"name":"県立佐世保西高等学校","address":"長崎県佐世保市田原町130-1","muni":"佐世保市","hazards":["土砂災害","地震","大規模な火事"],"kind":"指定緊急避難場所"},"geometry":{"type":"Point","coordinates":[129.7201972,33.20943611]}},{"type":"Feature","properties":{"name":"島瀬公園","address":"長崎県佐世保市島瀬町1000-14","muni":"佐世保市","hazards":["地震","大規模な火事"],"kind":"指定緊急避難場所"},"geometry":{"type":"Point","coordinates":[129.7207444,33.17241389]}},{"type":"Feature","properties":{"name":"東公園","address":"長崎県佐世保市東山町182-1","muni":"佐世保市","hazards":["地震","津波","大規模な火事"],"kind":"指定緊急避難場所"},"geometry":{"type":"Point","coordinates":[129.7416917,33.15433333]}},{"type":"Feature","properties":{"name":"大久保小学校","address":"長崎県佐世保市東大久保町9-10","muni":"佐世保市","hazards":["土砂災害","地震","大規模な火事"],"kind":"指定緊急避難場所"},"geometry":{"type":"Point","coordinates":[129.7099444,33.17793056]}},{"type":"Feature","properties":{"name":"東浜公園","address":"長崎県佐世保市東浜町10-2","muni":"佐世保市","hazards":["地震","津波","大規模な火事"],"kind":"指定緊急避難場所"},"geometry":{"type":"Point","coordinates":[129.7408222,33.13334722]}},{"type":"Feature","properties":{"name":"楠木公園","address":"長崎県佐世保市楠木町619","muni":"佐世保市","hazards":["地震","津波","大規模な火事"],"kind":"指定緊急避難場所"},"geometry":{"type":"Point","coordinates":[129.7214278,33.21943611]}},{"type":"Feature","properties":{"name":"日宇中学校","address":"長崎県佐世保市日宇町2181","muni":"佐世保市","hazards":["土砂災害","地震","大規模な火事"],"kind":"指定緊急避難場所"},"geometry":{"type":"Point","coordinates":[129.7638667,33.164325]}},{"type":"Feature","properties":{"name":"県立佐世保南高等学校","address":"長崎県佐世保市日宇町2526","muni":"佐世保市","hazards":["土砂災害","地震","大規模な火事"],"kind":"指定緊急避難場所"},"geometry":{"type":"Point","coordinates":[129.7668667,33.161325]}},{"type":"Feature","properties":{"name":"日宇ヶ丘第二公園","address":"長崎県佐世保市日宇町2810-255","muni":"佐世保市","hazards":["地震","津波","大規模な火事"],"kind":"指定緊急避難場所"},"geometry":{"type":"Point","coordinates":[129.7701417,33.15881111]}},{"type":"Feature","properties":{"name":"日宇小学校","address":"長崎県佐世保市日宇町284","muni":"佐世保市","hazards":["土砂災害","地震","大規模な火事"],"kind":"指定緊急避難場所"},"geometry":{"type":"Point","coordinates":[129.7563889,33.16390278]}},{"type":"Feature","properties":{"name":"日宇スポーツセンター","address":"長崎県佐世保市日宇町522-1","muni":"佐世保市","hazards":["土砂災害"],"kind":"指定緊急避難場所"},"geometry":{"type":"Point","coordinates":[129.7546917,33.15650833]}},{"type":"Feature","properties":{"name":"日宇地区コミュニティセンター","address":"長崎県佐世保市日宇町675-2","muni":"佐世保市","hazards":["土砂災害"],"kind":"指定緊急避難場所"},"geometry":{"type":"Point","coordinates":[129.7583889,33.15776111]}},{"type":"Feature","properties":{"name":"日野小学校","address":"長崎県佐世保市日野町1308","muni":"佐世保市","hazards":["洪水","土砂災害","地震","大規模な火事"],"kind":"指定緊急避難場所"},"geometry":{"type":"Point","coordinates":[129.6781222,33.1724]}},{"type":"Feature","properties":{"name":"日野中学校","address":"長崎県佐世保市日野町2079","muni":"佐世保市","hazards":["洪水","土砂災害","地震","津波","大規模な火事"],"kind":"指定緊急避難場所"},"geometry":{"type":"Point","coordinates":[129.6680472,33.17088889]}},{"type":"Feature","properties":{"name":"日野第二公園","address":"長崎県佐世保市日野町52-176","muni":"佐世保市","hazards":["地震","津波","大規模な火事"],"kind":"指定緊急避難場所"},"geometry":{"type":"Point","coordinates":[129.6820611,33.17293056]}},{"type":"Feature","properties":{"name":"日野東公園","address":"長崎県佐世保市日野町80-1","muni":"佐世保市","hazards":["地震","津波","大規模な火事"],"kind":"指定緊急避難場所"},"geometry":{"type":"Point","coordinates":[129.6813222,33.17004722]}},{"type":"Feature","properties":{"name":"県立佐世保中央高等学校","address":"長崎県佐世保市梅田町10-14","muni":"佐世保市","hazards":["土砂災害","地震","大規模な火事"],"kind":"指定緊急避難場所"},"geometry":{"type":"Point","coordinates":[129.7171917,33.18880278]}},{"type":"Feature","properties":{"name":"梅田公園","address":"長崎県佐世保市梅田町166-1","muni":"佐世保市","hazards":["地震","津波","大規模な火事"],"kind":"指定緊急避難場所"},"geometry":{"type":"Point","coordinates":[129.7173111,33.19143333]}},{"type":"Feature","properties":{"name":"宮地区コミュニティセンター　体育室","address":"長崎県佐世保市萩坂町1782-1","muni":"佐世保市","hazards":["土砂災害"],"kind":"指定緊急避難場所"},"geometry":{"type":"Point","coordinates":[129.81540023995,33.086530227589]}},{"type":"Feature","properties":{"name":"白岳公園","address":"長崎県佐世保市白岳町104","muni":"佐世保市","hazards":["地震","大規模な火事"],"kind":"指定緊急避難場所"},"geometry":{"type":"Point","coordinates":[129.7507528,33.152925]}},{"type":"Feature","properties":{"name":"県立佐世保北高等学校","address":"長崎県佐世保市八幡町6-31","muni":"佐世保市","hazards":["洪水","土砂災害","地震","大規模な火事"],"kind":"指定緊急避難場所"},"geometry":{"type":"Point","coordinates":[129.7188306,33.18111111]}},{"type":"Feature","properties":{"name":"比良公園","address":"長崎県佐世保市比良町1000-5","muni":"佐世保市","hazards":["地震","津波","大規模な火事"],"kind":"指定緊急避難場所"},"geometry":{"type":"Point","coordinates":[129.7131,33.176825]}},{"type":"Feature","properties":{"name":"久田学園佐世保女子高等学校","address":"長崎県佐世保市比良町21-1","muni":"佐世保市","hazards":["地震","大規模な火事"],"kind":"指定緊急避難場所"},"geometry":{"type":"Point","coordinates":[129.7107611,33.18040833]}},{"type":"Feature","properties":{"name":"旧俵浦小学校","address":"長崎県佐世保市俵ヶ浦町442","muni":"佐世保市","hazards":["地震","津波","大規模な火事"],"kind":"指定緊急避難場所"},"geometry":{"type":"Point","coordinates":[129.6751111,33.123325]}},{"type":"Feature","properties":{"name":"俵ヶ浦公園","address":"長崎県佐世保市俵ヶ浦町623-1","muni":"佐世保市","hazards":["地震","津波","大規模な火事"],"kind":"指定緊急避難場所"},"geometry":{"type":"Point","coordinates":[129.6715028,33.11931944]}},{"type":"Feature","properties":{"name":"浜田公園","address":"長崎県佐世保市浜田町1000-5","muni":"佐世保市","hazards":["地震","大規模な火事"],"kind":"指定緊急避難場所"},"geometry":{"type":"Point","coordinates":[129.7164806,33.17515833]}},{"type":"Feature","properties":{"name":"佐世保公園","address":"長崎県佐世保市平瀬町13","muni":"佐世保市","hazards":["地震","大規模な火事"],"kind":"指定緊急避難場所"},"geometry":{"type":"Point","coordinates":[129.7177556,33.17088056]}},{"type":"Feature","properties":{"name":"清水小学校","address":"長崎県佐世保市保立町10-1","muni":"佐世保市","hazards":["洪水","土砂災害","地震","大規模な火事"],"kind":"指定緊急避難場所"},"geometry":{"type":"Point","coordinates":[129.7149222,33.18793056]}},{"type":"Feature","properties":{"name":"清水地区コミュニティセンター","address":"長崎県佐世保市保立町12-31","muni":"佐世保市","hazards":["洪水","土砂災害"],"kind":"指定緊急避難場所"},"geometry":{"type":"Point","coordinates":[129.7142361,33.18631111]}},{"type":"Feature","properties":{"name":"総合教育センター","address":"長崎県佐世保市保立町12-31","muni":"佐世保市","hazards":["洪水","土砂災害"],"kind":"指定緊急避難場所"},"geometry":{"type":"Point","coordinates":[129.7144472,33.18610278]}},{"type":"Feature","properties":{"name":"佐世保実業高等学校","address":"長崎県佐世保市母ヶ浦町888-1","muni":"佐世保市","hazards":["洪水","土砂災害","地震","大規模な火事"],"kind":"指定緊急避難場所"},"geometry":{"type":"Point","coordinates":[129.6809222,33.17981389]}},{"type":"Feature","properties":{"name":"清水中学校","address":"長崎県佐世保市万徳町9-7","muni":"佐世保市","hazards":["土砂災害","地震","大規模な火事"],"kind":"指定緊急避難場所"},"geometry":{"type":"Point","coordinates":[129.7153361,33.18436111]}},{"type":"Feature","properties":{"name":"木場田公園","address":"長崎県佐世保市木場田町1000-6","muni":"佐世保市","hazards":["地震","津波","大規模な火事"],"kind":"指定緊急避難場所"},"geometry":{"type":"Point","coordinates":[129.7143444,33.17980278]}},{"type":"Feature","properties":{"name":"木風小学校","address":"長崎県佐世保市木風町180","muni":"佐世保市","hazards":["土砂災害","地震","大規模な火事"],"kind":"指定緊急避難場所"},"geometry":{"type":"Point","coordinates":[129.7416111,33.16707222]}},{"type":"Feature","properties":{"name":"旧野崎中学校","address":"長崎県佐世保市野崎町2916","muni":"佐世保市","hazards":["洪水","土砂災害","地震","津波","大規模な火事"],"kind":"指定緊急避難場所"},"geometry":{"type":"Point","coordinates":[129.6866722,33.11911389]}},{"type":"Feature","properties":{"name":"野中東公園","address":"長崎県佐世保市野中町５６０外","muni":"佐世保市","hazards":["地震","津波","大規模な火事"],"kind":"指定緊急避難場所"},"geometry":{"type":"Point","coordinates":[129.7120583,33.21409167]}},{"type":"Feature","properties":{"name":"矢峰公園","address":"長崎県佐世保市矢峰町100-2","muni":"佐世保市","hazards":["地震","津波","大規模な火事"],"kind":"指定緊急避難場所"},"geometry":{"type":"Point","coordinates":[129.7440278,33.21041111]}},{"type":"Feature","properties":{"name":"汐見台第四公園","address":"長崎県佐世保市有福町4149-31","muni":"佐世保市","hazards":["地震","大規模な火事"],"kind":"指定緊急避難場所"},"geometry":{"type":"Point","coordinates":[129.7927444,33.12775278]}},{"type":"Feature","properties":{"name":"汐見台第一公園","address":"長崎県佐世保市有福町4169-68","muni":"佐世保市","hazards":["地震","津波","大規模な火事"],"kind":"指定緊急避難場所"},"geometry":{"type":"Point","coordinates":[129.7929278,33.134375]}},{"type":"Feature","properties":{"name":"有福第一公園","address":"長崎県佐世保市有福町589-2","muni":"佐世保市","hazards":["地震","津波","大規模な火事"],"kind":"指定緊急避難場所"},"geometry":{"type":"Point","coordinates":[129.7883028,33.13246667]}},{"type":"Feature","properties":{"name":"江上地区コミュニティセンター　体育室","address":"長崎県佐世保市有福町827","muni":"佐世保市","hazards":["土砂災害"],"kind":"指定緊急避難場所"},"geometry":{"type":"Point","coordinates":[129.7846722,33.133225]}},{"type":"Feature","properties":{"name":"柚木地区コミュニティセンター　体育室","address":"長崎県佐世保市柚木町1434-1","muni":"佐世保市","hazards":["土砂災害"],"kind":"指定緊急避難場所"},"geometry":{"type":"Point","coordinates":[129.7628333,33.209475]}},{"type":"Feature","properties":{"name":"柚木中学校","address":"長崎県佐世保市柚木町2063","muni":"佐世保市","hazards":["土砂災害","地震","大規模な火事"],"kind":"指定緊急避難場所"},"geometry":{"type":"Point","coordinates":[129.7657,33.21125833]}},{"type":"Feature","properties":{"name":"柚木地区コミュニティセンター","address":"長崎県佐世保市柚木町2088-2","muni":"佐世保市","hazards":["土砂災害"],"kind":"指定緊急避難場所"},"geometry":{"type":"Point","coordinates":[129.7642083,33.21042222]}},{"type":"Feature","properties":{"name":"日宇地区コミュニティセンター体育室","address":"長崎県佐世保市もみじが丘町42-1","muni":"佐世保市","hazards":[],"kind":"指定避難所"},"geometry":{"type":"Point","coordinates":[129.7815028,33.160475]}},{"type":"Feature","properties":{"name":"大塔小学校","address":"長崎県佐世保市もみじが丘町6745","muni":"佐世保市","hazards":[],"kind":"指定避難所"},"geometry":{"type":"Point","coordinates":[129.77437886493,33.16143768644]}},{"type":"Feature","properties":{"name":"長崎国際大学","address":"長崎県佐世保市ハウステンボス町2825-7","muni":"佐世保市","hazards":[],"kind":"指定避難所"},"geometry":{"type":"Point","coordinates":[129.79133214149,33.10212356698]}},{"type":"Feature","properties":{"name":"道の駅「させぼっくす　９９」","address":"長崎県佐世保市愛宕町11","muni":"佐世保市","hazards":[],"kind":"指定避難所"},"geometry":{"type":"Point","coordinates":[129.67157902779,33.201609593374]}},{"type":"Feature","properties":{"name":"南地区コミュニティセンター","address":"長崎県佐世保市稲荷町2-5","muni":"佐世保市","hazards":[],"kind":"指定避難所"},"geometry":{"type":"Point","coordinates":[129.7346611,33.157075]}},{"type":"Feature","properties":{"name":"県立宇久高等学校","address":"長崎県佐世保市宇久町平1042","muni":"佐世保市","hazards":[],"kind":"指定避難所"},"geometry":{"type":"Point","coordinates":[129.12674684163,33.264142294835]}},{"type":"Feature","properties":{"name":"宇久中学校","address":"長崎県佐世保市宇久町平2303","muni":"佐世保市","hazards":[],"kind":"指定避難所"},"geometry":{"type":"Point","coordinates":[129.13133397149,33.267436243544]}},{"type":"Feature","properties":{"name":"宇久小学校","address":"長崎県佐世保市宇久町平2690","muni":"佐世保市","hazards":[],"kind":"指定避難所"},"geometry":{"type":"Point","coordinates":[129.1304614508,33.266456697824]}},{"type":"Feature","properties":{"name":"宇久地区コミュニティセンター","address":"長崎県佐世保市宇久町平2691","muni":"佐世保市","hazards":[],"kind":"指定避難所"},"geometry":{"type":"Point","coordinates":[129.1303361,33.26640278]}},{"type":"Feature","properties":{"name":"県立佐世保青少年の天地","address":"長崎県佐世保市烏帽子町376","muni":"佐世保市","hazards":[],"kind":"指定避難所"},"geometry":{"type":"Point","coordinates":[129.7555994372,33.175542382759]}},{"type":"Feature","properties":{"name":"佐世保拘置支所（鍛練場）","address":"長崎県佐世保市浦川内町1","muni":"佐世保市","hazards":[],"kind":"指定避難所"},"geometry":{"type":"Point","coordinates":[129.81247888835,33.117940570359]}},{"type":"Feature","properties":{"name":"東部スポーツ広場","address":"長崎県佐世保市浦川内町無番地","muni":"佐世保市","hazards":[],"kind":"指定避難所"},"geometry":{"type":"Point","coordinates":[129.80614006515,33.117703266585]}},{"type":"Feature","properties":{"name":"国立佐世保工業高等専門学校","address":"長崎県佐世保市沖新町1-1","muni":"佐世保市","hazards":[],"kind":"指定避難所"},"geometry":{"type":"Point","coordinates":[129.74870639268,33.1493606949]}},{"type":"Feature","properties":{"name":"宮小学校","address":"長崎県佐世保市荻坂町1715","muni":"佐世保市","hazards":[],"kind":"指定避難所"},"geometry":{"type":"Point","coordinates":[129.81821064378,33.088443679573]}},{"type":"Feature","properties":{"name":"九十九地区コミュニティセンター","address":"長崎県佐世保市下船越町306-7","muni":"佐世保市","hazards":[],"kind":"指定避難所"},"geometry":{"type":"Point","coordinates":[129.6980667,33.13688889]}},{"type":"Feature","properties":{"name":"九州文化学園小中学校","address":"長崎県佐世保市花園町10-1","muni":"佐世保市","hazards":[],"kind":"指定避難所"},"geometry":{"type":"Point","coordinates":[129.72336594487,33.182816717758]}},{"type":"Feature","properties":{"name":"早岐児童センター","address":"長崎県佐世保市花高1-6-45","muni":"佐世保市","hazards":[],"kind":"指定避難所"},"geometry":{"type":"Point","coordinates":[129.803774,33.138361]}},{"type":"Feature","properties":{"name":"花高小学校","address":"長崎県佐世保市花高3-4-1","muni":"佐世保市","hazards":[],"kind":"指定避難所"},"geometry":{"type":"Point","coordinates":[129.81139612615,33.140539691074]}},{"type":"Feature","properties":{"name":"早岐地区コミュニティセンター　花高体育室","address":"長崎県佐世保市花高3-98-11","muni":"佐世保市","hazards":[],"kind":"指定避難所"},"geometry":{"type":"Point","coordinates":[129.808785,33.140911]}},{"type":"Feature","properties":{"name":"皆瀬小学校","address":"長崎県佐世保市皆瀬町207","muni":"佐世保市","hazards":[],"kind":"指定避難所"},"geometry":{"type":"Point","coordinates":[129.69801063436,33.214157961753]}},{"type":"Feature","properties":{"name":"福石中学校","address":"長崎県佐世保市干尽町2-10","muni":"佐世保市","hazards":[],"kind":"指定避難所"},"geometry":{"type":"Point","coordinates":[129.73262677709,33.153213475243]}},{"type":"Feature","properties":{"name":"佐世保競輪場","address":"長崎県佐世保市干尽町2-5","muni":"佐世保市","hazards":[],"kind":"指定避難所"},"geometry":{"type":"Point","coordinates":[129.73068487499,33.155553809883]}},{"type":"Feature","properties":{"name":"祇園中学校","address":"長崎県佐世保市祇園町14-12","muni":"佐世保市","hazards":[],"kind":"指定避難所"},"geometry":{"type":"Point","coordinates":[129.72519289561,33.176848463019]}},{"type":"Feature","properties":{"name":"祇園小学校","address":"長崎県佐世保市祇園町18-18","muni":"佐世保市","hazards":[],"kind":"指定避難所"},"geometry":{"type":"Point","coordinates":[129.72350100524,33.174636839756]}},{"type":"Feature","properties":{"name":"吉井南小学校","address":"長崎県佐世保市吉井町前岳27-3","muni":"佐世保市","hazards":[],"kind":"指定避難所"},"geometry":{"type":"Point","coordinates":[129.69180538954,33.27060915358]}},{"type":"Feature","properties":{"name":"吉井中学校","address":"長崎県佐世保市吉井町前岳3-2","muni":"佐世保市","hazards":[],"kind":"指定避難所"},"geometry":{"type":"Point","coordinates":[129.692149236,33.270030220038]}},{"type":"Feature","properties":{"name":"吉井北小学校","address":"長崎県佐世保市吉井町直谷1030","muni":"佐世保市","hazards":[],"kind":"指定避難所"},"geometry":{"type":"Point","coordinates":[129.69880963825,33.286439577079]}},{"type":"Feature","properties":{"name":"吉井地区コミュニティセンター　吉田乃館","address":"長崎県佐世保市吉井町田原625-1","muni":"佐世保市","hazards":[],"kind":"指定避難所"},"geometry":{"type":"Point","coordinates":[129.699692,33.259901]}},{"type":"Feature","properties":{"name":"吉井地区コミュニティセンター","address":"長崎県佐世保市吉井町立石473","muni":"佐世保市","hazards":[],"kind":"指定避難所"},"geometry":{"type":"Point","coordinates":[129.6887861,33.270125]}},{"type":"Feature","properties":{"name":"県立佐世保商業高等学校","address":"長崎県佐世保市吉岡町863-3","muni":"佐世保市","hazards":[],"kind":"指定避難所"},"geometry":{"type":"Point","coordinates":[129.6982007399,33.205952730607]}},{"type":"Feature","properties":{"name":"光海中学校","address":"長崎県佐世保市金比良町1-15","muni":"佐世保市","hazards":[],"kind":"指定避難所"},"geometry":{"type":"Point","coordinates":[129.70890498168,33.168441537482]}},{"type":"Feature","properties":{"name":"金比良小学校","address":"長崎県佐世保市金比良町1-5","muni":"佐世保市","hazards":[],"kind":"指定避難所"},"geometry":{"type":"Point","coordinates":[129.70727868905,33.169779218233]}},{"type":"Feature","properties":{"name":"西地区コミュニティセンター","address":"長崎県佐世保市金比良町1-7","muni":"佐世保市","hazards":[],"kind":"指定避難所"},"geometry":{"type":"Point","coordinates":[129.7069306,33.16935278]}},{"type":"Feature","properties":{"name":"県立武道館","address":"長崎県佐世保市熊野町90","muni":"佐世保市","hazards":[],"kind":"指定避難所"},"geometry":{"type":"Point","coordinates":[129.722424,33.178948]}},{"type":"Feature","properties":{"name":"大野小学校","address":"長崎県佐世保市原分町1","muni":"佐世保市","hazards":[],"kind":"指定避難所"},"geometry":{"type":"Point","coordinates":[129.72620643696,33.210218807311]}},{"type":"Feature","properties":{"name":"旧戸尾小学校跡","address":"長崎県佐世保市戸尾町5-1","muni":"佐世保市","hazards":[],"kind":"指定避難所"},"geometry":{"type":"Point","coordinates":[129.72523131969,33.168987470531]}},{"type":"Feature","properties":{"name":"体育文化館","address":"長崎県佐世保市光月町6-17","muni":"佐世保市","hazards":[],"kind":"指定避難所"},"geometry":{"type":"Point","coordinates":[129.72420833333,33.172786111111]}},{"type":"Feature","properties":{"name":"中部地区コミュニティセンター","address":"長崎県佐世保市光月町6-17","muni":"佐世保市","hazards":[],"kind":"指定避難所"},"geometry":{"type":"Point","coordinates":[129.72455,33.17314444]}},{"type":"Feature","properties":{"name":"三川内小学校","address":"長崎県佐世保市口の尾町698","muni":"佐世保市","hazards":[],"kind":"指定避難所"},"geometry":{"type":"Point","coordinates":[129.82855185737,33.159289396256]}},{"type":"Feature","properties":{"name":"広田小学校","address":"長崎県佐世保市広田1-25-4","muni":"佐世保市","hazards":[],"kind":"指定避難所"},"geometry":{"type":"Point","coordinates":[129.802644,33.127484]}},{"type":"Feature","properties":{"name":"デイサービスセンター老福荘","address":"長崎県佐世保市江迎町赤坂282-24","muni":"佐世保市","hazards":[],"kind":"指定避難所"},"geometry":{"type":"Point","coordinates":[129.64035,33.296624]}},{"type":"Feature","properties":{"name":"江迎小学校","address":"長崎県佐世保市江迎町中尾126","muni":"佐世保市","hazards":[],"kind":"指定避難所"},"geometry":{"type":"Point","coordinates":[129.63467879118,33.309281628968]}},{"type":"Feature","properties":{"name":"猪調小学校","address":"長崎県佐世保市江迎町猪調1000","muni":"佐世保市","hazards":[],"kind":"指定避難所"},"geometry":{"type":"Point","coordinates":[129.67009527587,33.28486179921]}},{"type":"Feature","properties":{"name":"江迎地区コミュニティセンター","address":"長崎県佐世保市江迎町長坂104","muni":"佐世保市","hazards":[],"kind":"指定避難所"},"geometry":{"type":"Point","coordinates":[129.6318611,33.30706389]}},{"type":"Feature","properties":{"name":"江迎地区文化会館","address":"長崎県佐世保市江迎町田ノ元265-1","muni":"佐世保市","hazards":[],"kind":"指定避難所"},"geometry":{"type":"Point","coordinates":[129.68466926143,33.281273317076]}},{"type":"Feature","properties":{"name":"江迎中学校","address":"長崎県佐世保市江迎町乱橋584","muni":"佐世保市","hazards":[],"kind":"指定避難所"},"geometry":{"type":"Point","coordinates":[129.63749773929,33.296599097162]}},{"type":"Feature","properties":{"name":"東明中学校","address":"長崎県佐世保市江上町814","muni":"佐世保市","hazards":[],"kind":"指定避難所"},"geometry":{"type":"Point","coordinates":[129.76965489568,33.108839144292]}},{"type":"Feature","properties":{"name":"相浦小学校高島分校","address":"長崎県佐世保市高島町336","muni":"佐世保市","hazards":[],"kind":"指定避難所"},"geometry":{"type":"Point","coordinates":[129.58913135251,33.164496389763]}},{"type":"Feature","properties":{"name":"黒島小中学校","address":"長崎県佐世保市黒島町2608-10","muni":"佐世保市","hazards":[],"kind":"指定避難所"},"geometry":{"type":"Point","coordinates":[129.53975335199,33.143558495066]}},{"type":"Feature","properties":{"name":"黒島地区コミュニティセンター","address":"長崎県佐世保市黒島町3175","muni":"佐世保市","hazards":[],"kind":"指定避難所"},"geometry":{"type":"Point","coordinates":[129.5344806,33.14178611]}},{"type":"Feature","properties":{"name":"黒髪小学校","address":"長崎県佐世保市黒髪町52-1","muni":"佐世保市","hazards":[],"kind":"指定避難所"},"geometry":{"type":"Point","coordinates":[129.77570107376,33.16411586034]}},{"type":"Feature","properties":{"name":"三川内地区コミュニティセンター","address":"長崎県佐世保市三川内本町289-1","muni":"佐世保市","hazards":[],"kind":"指定避難所"},"geometry":{"type":"Point","coordinates":[129.8293139,33.15274722]}},{"type":"Feature","properties":{"name":"三川内地区コミュニティセンター　体育室","address":"長崎県佐世保市三川内本町358-1","muni":"佐世保市","hazards":[],"kind":"指定避難所"},"geometry":{"type":"Point","coordinates":[129.8302722,33.15457778]}},{"type":"Feature","properties":{"name":"白南風小学校","address":"長崎県佐世保市山祇町387","muni":"佐世保市","hazards":[],"kind":"指定避難所"},"geometry":{"type":"Point","coordinates":[129.73312979364,33.167865119668]}},{"type":"Feature","properties":{"name":"山手小学校","address":"長崎県佐世保市山手町16-38","muni":"佐世保市","hazards":[],"kind":"指定避難所"},"geometry":{"type":"Point","coordinates":[129.72645311183,33.186525405161]}},{"type":"Feature","properties":{"name":"江上地区コミュニティセンター","address":"長崎県佐世保市指方町1759","muni":"佐世保市","hazards":[],"kind":"指定避難所"},"geometry":{"type":"Point","coordinates":[129.7834389,33.10856944]}},{"type":"Feature","properties":{"name":"江上小学校","address":"長崎県佐世保市指方町2382","muni":"佐世保市","hazards":[],"kind":"指定避難所"},"geometry":{"type":"Point","coordinates":[129.77822867371,33.109208585073]}},{"type":"Feature","properties":{"name":"旧ポリテクセンター体育館","address":"長崎県佐世保市指方町692-1","muni":"佐世保市","hazards":[],"kind":"指定避難所"},"geometry":{"type":"Point","coordinates":[129.79140544666,33.114498110161]}},{"type":"Feature","properties":{"name":"赤崎小学校","address":"長崎県佐世保市鹿子前町330","muni":"佐世保市","hazards":[],"kind":"指定避難所"},"geometry":{"type":"Point","coordinates":[129.68820356017,33.160635806892]}},{"type":"Feature","properties":{"name":"鹿町中学校","address":"長崎県佐世保市鹿町町下歌ヶ浦1-16","muni":"佐世保市","hazards":[],"kind":"指定避難所"},"geometry":{"type":"Point","coordinates":[129.58971500796,33.278553733377]}},{"type":"Feature","properties":{"name":"歌浦小学校","address":"長崎県佐世保市鹿町町下歌ヶ浦791-11","muni":"佐世保市","hazards":[],"kind":"指定避難所"},"geometry":{"type":"Point","coordinates":[129.58154655791,33.266342819991]}},{"type":"Feature","properties":{"name":"鹿町地区コミュニティセンター","address":"長崎県佐世保市鹿町町下歌ヶ浦8-37","muni":"佐世保市","hazards":[],"kind":"指定避難所"},"geometry":{"type":"Point","coordinates":[129.5933194,33.27826944]}},{"type":"Feature","properties":{"name":"鹿町小学校","address":"長崎県佐世保市鹿町町深江730-1","muni":"佐世保市","hazards":[],"kind":"指定避難所"},"geometry":{"type":"Point","coordinates":[129.61599719244,33.298097088171]}},{"type":"Feature","properties":{"name":"県立鹿町工業高等学校","address":"長崎県佐世保市鹿町町土肥ノ浦110","muni":"佐世保市","hazards":[],"kind":"指定避難所"},"geometry":{"type":"Point","coordinates":[129.61726284724,33.305774829471]}},{"type":"Feature","properties":{"name":"崎辺地区コミュニティセンター","address":"長崎県佐世保市十郎新町3-7","muni":"佐世保市","hazards":[],"kind":"指定避難所"},"geometry":{"type":"Point","coordinates":[129.7395806,33.13830833]}},{"type":"Feature","properties":{"name":"広田中学校","address":"長崎県佐世保市重尾町188","muni":"佐世保市","hazards":[],"kind":"指定避難所"},"geometry":{"type":"Point","coordinates":[129.80968356365,33.124124830012]}},{"type":"Feature","properties":{"name":"県立佐世保東翔高等学校","address":"長崎県佐世保市重尾町425-3","muni":"佐世保市","hazards":[],"kind":"指定避難所"},"geometry":{"type":"Point","coordinates":[129.81618487363,33.126011194694]}},{"type":"Feature","properties":{"name":"広田地区コミュニティセンター","address":"長崎県佐世保市重尾町63","muni":"佐世保市","hazards":[],"kind":"指定避難所"},"geometry":{"type":"Point","coordinates":[129.8074167,33.124475]}},{"type":"Feature","properties":{"name":"北地区コミュニティセンター","address":"長崎県佐世保市春日町18-9","muni":"佐世保市","hazards":[],"kind":"指定避難所"},"geometry":{"type":"Point","coordinates":[129.7230917,33.19820833]}},{"type":"Feature","properties":{"name":"西海学園高等学校","address":"長崎県佐世保市春日町29-22","muni":"佐世保市","hazards":[],"kind":"指定避難所"},"geometry":{"type":"Point","coordinates":[129.72169903801,33.200632940684]}},{"type":"Feature","properties":{"name":"小佐々スポーツセンター","address":"長崎県佐世保市小佐々町黒石523-1","muni":"佐世保市","hazards":[],"kind":"指定避難所"},"geometry":{"type":"Point","coordinates":[129.62922777778,33.218366666667]}},{"type":"Feature","properties":{"name":"小佐々中学校","address":"長崎県佐世保市小佐々町西川内132","muni":"佐世保市","hazards":[],"kind":"指定避難所"},"geometry":{"type":"Point","coordinates":[129.60015235369,33.213704974859]}},{"type":"Feature","properties":{"name":"小佐々地区コミュニティセンター","address":"長崎県佐世保市小佐々町西川内172-3","muni":"佐世保市","hazards":[],"kind":"指定避難所"},"geometry":{"type":"Point","coordinates":[129.599054,33.214972]}},{"type":"Feature","properties":{"name":"小佐々小学校","address":"長崎県佐世保市小佐々町田原290-1","muni":"佐世保市","hazards":[],"kind":"指定避難所"},"geometry":{"type":"Point","coordinates":[129.61926803321,33.225977963003]}},{"type":"Feature","properties":{"name":"楠栖小学校","address":"長崎県佐世保市小佐々町楠泊526","muni":"佐世保市","hazards":[],"kind":"指定避難所"},"geometry":{"type":"Point","coordinates":[129.57377648664,33.218980551384]}},{"type":"Feature","properties":{"name":"小佐世保小学校","address":"長崎県佐世保市小佐世保町18-1","muni":"佐世保市","hazards":[],"kind":"指定避難所"},"geometry":{"type":"Point","coordinates":[129.73472524234,33.176476248928]}},{"type":"Feature","properties":{"name":"県立ろう学校佐世保分教室","address":"長崎県佐世保市小舟町60","muni":"佐世保市","hazards":[],"kind":"指定避難所"},"geometry":{"type":"Point","coordinates":[129.75941584906,33.207864131487]}},{"type":"Feature","properties":{"name":"聖和女子学院高等学校","address":"長崎県佐世保市松山町495","muni":"佐世保市","hazards":[],"kind":"指定避難所"},"geometry":{"type":"Point","coordinates":[129.72239510238,33.19172748489]}},{"type":"Feature","properties":{"name":"大野中学校","address":"長崎県佐世保市松瀬町838","muni":"佐世保市","hazards":[],"kind":"指定避難所"},"geometry":{"type":"Point","coordinates":[129.72680113421,33.21035193081]}},{"type":"Feature","properties":{"name":"相浦小学校","address":"長崎県佐世保市上相浦町3-9","muni":"佐世保市","hazards":[],"kind":"指定避難所"},"geometry":{"type":"Point","coordinates":[129.66779530229,33.193135743359]}},{"type":"Feature","properties":{"name":"中里皆瀬地区コミュニティセンター","address":"長崎県佐世保市上本山町1228-1","muni":"佐世保市","hazards":[],"kind":"指定避難所"},"geometry":{"type":"Point","coordinates":[129.6955806,33.210625]}},{"type":"Feature","properties":{"name":"柚木小学校","address":"長崎県佐世保市上柚木町3204","muni":"佐世保市","hazards":[],"kind":"指定避難所"},"geometry":{"type":"Point","coordinates":[129.77373831038,33.212880301837]}},{"type":"Feature","properties":{"name":"宮中学校","address":"長崎県佐世保市城間町338","muni":"佐世保市","hazards":[],"kind":"指定避難所"},"geometry":{"type":"Point","coordinates":[129.8151699871,33.087580047748]}},{"type":"Feature","properties":{"name":"宮地区コミュニティセンター","address":"長崎県佐世保市城間町345","muni":"佐世保市","hazards":[],"kind":"指定避難所"},"geometry":{"type":"Point","coordinates":[129.8148194,33.08686944]}},{"type":"Feature","properties":{"name":"まちなかコミュニティセンター","address":"長崎県佐世保市常盤町6-1","muni":"佐世保市","hazards":[],"kind":"指定避難所"},"geometry":{"type":"Point","coordinates":[129.7187528,33.17378333]}},{"type":"Feature","properties":{"name":"三川内中学校","address":"長崎県佐世保市新行江町957","muni":"佐世保市","hazards":[],"kind":"指定避難所"},"geometry":{"type":"Point","coordinates":[129.83375311948,33.155198739831]}},{"type":"Feature","properties":{"name":"針尾地区コミュニティセンター","address":"長崎県佐世保市針尾中町1538-5","muni":"佐世保市","hazards":[],"kind":"指定避難所"},"geometry":{"type":"Point","coordinates":[129.7560833,33.07778333]}},{"type":"Feature","properties":{"name":"針尾小学校","address":"長崎県佐世保市針尾中町1863","muni":"佐世保市","hazards":[],"kind":"指定避難所"},"geometry":{"type":"Point","coordinates":[129.75469596677,33.082190782602]}},{"type":"Feature","properties":{"name":"針尾地区コミュニティセンター　体育室","address":"長崎県佐世保市針尾北町756","muni":"佐世保市","hazards":[],"kind":"指定避難所"},"geometry":{"type":"Point","coordinates":[129.75604929392,33.100259486338]}},{"type":"Feature","properties":{"name":"早岐中学校","address":"長崎県佐世保市陣の内町100","muni":"佐世保市","hazards":[],"kind":"指定避難所"},"geometry":{"type":"Point","coordinates":[129.79700422218,33.143321810751]}},{"type":"Feature","properties":{"name":"潮見小学校","address":"長崎県佐世保市須田尾町19-44","muni":"佐世保市","hazards":[],"kind":"指定避難所"},"geometry":{"type":"Point","coordinates":[129.73435168782,33.164699550623]}},{"type":"Feature","properties":{"name":"山澄中学校","address":"長崎県佐世保市須田尾町232","muni":"佐世保市","hazards":[],"kind":"指定避難所"},"geometry":{"type":"Point","coordinates":[129.73596677262,33.166378548257]}},{"type":"Feature","properties":{"name":"世知原中学校","address":"長崎県佐世保市世知原町栗迎132-1","muni":"佐世保市","hazards":[],"kind":"指定避難所"},"geometry":{"type":"Point","coordinates":[129.75307113936,33.254584645801]}},{"type":"Feature","properties":{"name":"世知原小学校","address":"長崎県佐世保市世知原町栗迎194-1","muni":"佐世保市","hazards":[],"kind":"指定避難所"},"geometry":{"type":"Point","coordinates":[129.75354816219,33.256681028612]}},{"type":"Feature","properties":{"name":"世知原地区コミュニティセンター","address":"長崎県佐世保市世知原町栗迎246-1","muni":"佐世保市","hazards":[],"kind":"指定避難所"},"geometry":{"type":"Point","coordinates":[129.75168522588,33.257698563416]}},{"type":"Feature","properties":{"name":"春日小学校","address":"長崎県佐世保市瀬戸越3-19-1","muni":"佐世保市","hazards":[],"kind":"指定避難所"},"geometry":{"type":"Point","coordinates":[129.72828606692,33.203047870508]}},{"type":"Feature","properties":{"name":"県立佐世保工業高等学校","address":"長崎県佐世保市瀬戸越3-3-30","muni":"佐世保市","hazards":[],"kind":"指定避難所"},"geometry":{"type":"Point","coordinates":[129.72993575838,33.208060585889]}},{"type":"Feature","properties":{"name":"愛宕中学校","address":"長崎県佐世保市赤崎町483-2","muni":"佐世保市","hazards":[],"kind":"指定避難所"},"geometry":{"type":"Point","coordinates":[129.69703366965,33.1570812126]}},{"type":"Feature","properties":{"name":"愛宕地区コミュニティセンター","address":"長崎県佐世保市赤崎町596-26","muni":"佐世保市","hazards":[],"kind":"指定避難所"},"geometry":{"type":"Point","coordinates":[129.6953917,33.15556389]}},{"type":"Feature","properties":{"name":"長崎県立大学佐世保校","address":"長崎県佐世保市川下町123","muni":"佐世保市","hazards":[],"kind":"指定避難所"},"geometry":{"type":"Point","coordinates":[129.66661265403,33.18686072236]}},{"type":"Feature","properties":{"name":"相浦地区コミュニティセンター","address":"長崎県佐世保市川下町209-5","muni":"佐世保市","hazards":[],"kind":"指定避難所"},"geometry":{"type":"Point","coordinates":[129.66823856129,33.186276287825]}},{"type":"Feature","properties":{"name":"相浦中学校","address":"長崎県佐世保市川下町277","muni":"佐世保市","hazards":[],"kind":"指定避難所"},"geometry":{"type":"Point","coordinates":[129.66855761201,33.190341316302]}},{"type":"Feature","properties":{"name":"浅子小中学校","address":"長崎県佐世保市浅子町58","muni":"佐世保市","hazards":[],"kind":"指定避難所"},"geometry":{"type":"Point","coordinates":[129.62599839863,33.203214809879]}},{"type":"Feature","properties":{"name":"船越小学校","address":"長崎県佐世保市船越町759","muni":"佐世保市","hazards":[],"kind":"指定避難所"},"geometry":{"type":"Point","coordinates":[129.69048389068,33.145850161726]}},{"type":"Feature","properties":{"name":"早岐地区コミュニティセンター","address":"長崎県佐世保市早岐1-6-38","muni":"佐世保市","hazards":[],"kind":"指定避難所"},"geometry":{"type":"Point","coordinates":[129.7975667,33.13631111]}},{"type":"Feature","properties":{"name":"早岐小学校","address":"長崎県佐世保市早岐2-32-12","muni":"佐世保市","hazards":[],"kind":"指定避難所"},"geometry":{"type":"Point","coordinates":[129.79800511192,33.139810730701]}},{"type":"Feature","properties":{"name":"相浦西小学校","address":"長崎県佐世保市相浦町794","muni":"佐世保市","hazards":[],"kind":"指定避難所"},"geometry":{"type":"Point","coordinates":[129.66249778708,33.191268190726]}},{"type":"Feature","properties":{"name":"相浦西小学校大崎分校","address":"長崎県佐世保市大潟町467","muni":"佐世保市","hazards":[],"kind":"指定避難所"},"geometry":{"type":"Point","coordinates":[129.6453113808,33.173423266925]}},{"type":"Feature","properties":{"name":"福石小学校","address":"長崎県佐世保市大宮町32-1","muni":"佐世保市","hazards":[],"kind":"指定避難所"},"geometry":{"type":"Point","coordinates":[129.74266459524,33.156384826524]}},{"type":"Feature","properties":{"name":"県立佐世保特別支援学校","address":"長崎県佐世保市竹辺町810","muni":"佐世保市","hazards":[],"kind":"指定避難所"},"geometry":{"type":"Point","coordinates":[129.67392505251,33.196868585392]}},{"type":"Feature","properties":{"name":"中里小学校","address":"長崎県佐世保市中里町356","muni":"佐世保市","hazards":[],"kind":"指定避難所"},"geometry":{"type":"Point","coordinates":[129.68375816695,33.202958724715]}},{"type":"Feature","properties":{"name":"中里中学校","address":"長崎県佐世保市中里町905","muni":"佐世保市","hazards":[],"kind":"指定避難所"},"geometry":{"type":"Point","coordinates":[129.69030355991,33.204498500367]}},{"type":"Feature","properties":{"name":"山澄地区コミュニティセンター","address":"長崎県佐世保市潮見町14-14","muni":"佐世保市","hazards":[],"kind":"指定避難所"},"geometry":{"type":"Point","coordinates":[129.7289722,33.16422222]}},{"type":"Feature","properties":{"name":"九州文化学園高等学校","address":"長崎県佐世保市椎木町600","muni":"佐世保市","hazards":[],"kind":"指定避難所"},"geometry":{"type":"Point","coordinates":[129.67239762937,33.179772932029]}},{"type":"Feature","properties":{"name":"長崎短期大学","address":"長崎県佐世保市椎木町600","muni":"佐世保市","hazards":[],"kind":"指定避難所"},"geometry":{"type":"Point","coordinates":[129.6743206859,33.180215384809]}},{"type":"Feature","properties":{"name":"総合グラウンド","address":"長崎県佐世保市椎木町無番地","muni":"佐世保市","hazards":[],"kind":"指定避難所"},"geometry":{"type":"Point","coordinates":[129.66733055556,33.179280555556]}},{"type":"Feature","properties":{"name":"天神小学校","address":"長崎県佐世保市天神1-11-13","muni":"佐世保市","hazards":[],"kind":"指定避難所"},"geometry":{"type":"Point","coordinates":[129.7390359523,33.150071823623]}},{"type":"Feature","properties":{"name":"港小学校","address":"長崎県佐世保市天神町1603","muni":"佐世保市","hazards":[],"kind":"指定避難所"},"geometry":{"type":"Point","coordinates":[129.72966415088,33.139589254112]}},{"type":"Feature","properties":{"name":"崎辺中学校","address":"長崎県佐世保市天神町1706","muni":"佐世保市","hazards":[],"kind":"指定避難所"},"geometry":{"type":"Point","coordinates":[129.73190513969,33.140516633581]}},{"type":"Feature","properties":{"name":"大野地区コミュニティセンター","address":"長崎県佐世保市田原町13-29","muni":"佐世保市","hazards":[],"kind":"指定避難所"},"geometry":{"type":"Point","coordinates":[129.7211667,33.20851389]}},{"type":"Feature","properties":{"name":"県立佐世保西高等学校","address":"長崎県佐世保市田原町130-1","muni":"佐世保市","hazards":[],"kind":"指定避難所"},"geometry":{"type":"Point","coordinates":[129.72020036697,33.20938593231]}},{"type":"Feature","properties":{"name":"大久保小学校","address":"長崎県佐世保市東大久保町9-10","muni":"佐世保市","hazards":[],"kind":"指定避難所"},"geometry":{"type":"Point","coordinates":[129.70995079558,33.177892138309]}},{"type":"Feature","properties":{"name":"日宇中学校","address":"長崎県佐世保市日宇町2181","muni":"佐世保市","hazards":[],"kind":"指定避難所"},"geometry":{"type":"Point","coordinates":[129.76385049622,33.164304911709]}},{"type":"Feature","properties":{"name":"県立佐世保南高等学校","address":"長崎県佐世保市日宇町2526","muni":"佐世保市","hazards":[],"kind":"指定避難所"},"geometry":{"type":"Point","coordinates":[129.7668523629,33.161299383095]}},{"type":"Feature","properties":{"name":"日宇小学校","address":"長崎県佐世保市日宇町284","muni":"佐世保市","hazards":[],"kind":"指定避難所"},"geometry":{"type":"Point","coordinates":[129.75639340396,33.163884996213]}},{"type":"Feature","properties":{"name":"日宇スポーツセンター","address":"長崎県佐世保市日宇町522-1","muni":"佐世保市","hazards":[],"kind":"指定避難所"},"geometry":{"type":"Point","coordinates":[129.75469166667,33.156508333333]}},{"type":"Feature","properties":{"name":"日宇地区コミュニティセンター","address":"長崎県佐世保市日宇町675-2","muni":"佐世保市","hazards":[],"kind":"指定避難所"},"geometry":{"type":"Point","coordinates":[129.7583889,33.15776111]}},{"type":"Feature","properties":{"name":"日野小学校","address":"長崎県佐世保市日野町1308","muni":"佐世保市","hazards":[],"kind":"指定避難所"},"geometry":{"type":"Point","coordinates":[129.67809994935,33.17237596254]}},{"type":"Feature","properties":{"name":"日野中学校","address":"長崎県佐世保市日野町2079","muni":"佐世保市","hazards":[],"kind":"指定避難所"},"geometry":{"type":"Point","coordinates":[129.66804644506,33.1708466435]}},{"type":"Feature","properties":{"name":"県立佐世保中央高等学校","address":"長崎県佐世保市梅田町10-14","muni":"佐世保市","hazards":[],"kind":"指定避難所"},"geometry":{"type":"Point","coordinates":[129.71722076516,33.188746991742]}},{"type":"Feature","properties":{"name":"宮地区コミュニティセンター　体育室","address":"長崎県佐世保市萩坂町1782-1","muni":"佐世保市","hazards":[],"kind":"指定避難所"},"geometry":{"type":"Point","coordinates":[129.81540023995,33.086530227589]}},{"type":"Feature","properties":{"name":"県立佐世保北高等学校","address":"長崎県佐世保市八幡町6-31","muni":"佐世保市","hazards":[],"kind":"指定避難所"},"geometry":{"type":"Point","coordinates":[129.71884288923,33.181102778725]}},{"type":"Feature","properties":{"name":"久田学園佐世保女子高等学校","address":"長崎県佐世保市比良町21-1","muni":"佐世保市","hazards":[],"kind":"指定避難所"},"geometry":{"type":"Point","coordinates":[129.71074894871,33.180405080813]}},{"type":"Feature","properties":{"name":"清水小学校","address":"長崎県佐世保市保立町10-1","muni":"佐世保市","hazards":[],"kind":"指定避難所"},"geometry":{"type":"Point","coordinates":[129.71503795084,33.187677109866]}},{"type":"Feature","properties":{"name":"清水地区コミュニティセンター","address":"長崎県佐世保市保立町12-31","muni":"佐世保市","hazards":[],"kind":"指定避難所"},"geometry":{"type":"Point","coordinates":[129.7142361,33.18631111]}},{"type":"Feature","properties":{"name":"総合教育センター","address":"長崎県佐世保市保立町12-31","muni":"佐世保市","hazards":[],"kind":"指定避難所"},"geometry":{"type":"Point","coordinates":[129.71444722222,33.186102777778]}},{"type":"Feature","properties":{"name":"佐世保実業高等学校","address":"長崎県佐世保市母ヶ浦町888-1","muni":"佐世保市","hazards":[],"kind":"指定避難所"},"geometry":{"type":"Point","coordinates":[129.68099985759,33.179776175783]}},{"type":"Feature","properties":{"name":"清水中学校","address":"長崎県佐世保市万徳町9-7","muni":"佐世保市","hazards":[],"kind":"指定避難所"},"geometry":{"type":"Point","coordinates":[129.71532285115,33.184343527475]}},{"type":"Feature","properties":{"name":"木風小学校","address":"長崎県佐世保市木風町180","muni":"佐世保市","hazards":[],"kind":"指定避難所"},"geometry":{"type":"Point","coordinates":[129.74157752587,33.167043199725]}},{"type":"Feature","properties":{"name":"旧野崎中学校","address":"長崎県佐世保市野崎町2916","muni":"佐世保市","hazards":[],"kind":"指定避難所"},"geometry":{"type":"Point","coordinates":[129.68668351317,33.119111457036]}},{"type":"Feature","properties":{"name":"野崎町公民館","address":"長崎県佐世保市野崎町2931","muni":"佐世保市","hazards":[],"kind":"指定避難所"},"geometry":{"type":"Point","coordinates":[129.687673,33.118656]}},{"type":"Feature","properties":{"name":"江上地区コミュニティセンター　体育室","address":"長崎県佐世保市有福町827","muni":"佐世保市","hazards":[],"kind":"指定避難所"},"geometry":{"type":"Point","coordinates":[129.7846722,33.133225]}},{"type":"Feature","properties":{"name":"柚木地区コミュニティセンター　体育室","address":"長崎県佐世保市柚木町1434-1","muni":"佐世保市","hazards":[],"kind":"指定避難所"},"geometry":{"type":"Point","coordinates":[129.7628333,33.209475]}},{"type":"Feature","properties":{"name":"柚木中学校","address":"長崎県佐世保市柚木町2063","muni":"佐世保市","hazards":[],"kind":"指定避難所"},"geometry":{"type":"Point","coordinates":[129.76568785671,33.211233848885]}},{"type":"Feature","properties":{"name":"柚木地区コミュニティセンター","address":"長崎県佐世保市柚木町2088-2","muni":"佐世保市","hazards":[],"kind":"指定避難所"},"geometry":{"type":"Point","coordinates":[129.7642083,33.21042222]}},{"type":"Feature","properties":{"name":"千本公園グラウンド","address":"長崎県佐々町羽須和免200","muni":"佐々町","hazards":["洪水","高潮","地震","津波","大規模な火事","内水氾濫"],"kind":"指定緊急避難場所"},"geometry":{"type":"Point","coordinates":[129.655260602486,33.2329962695546]}},{"type":"Feature","properties":{"name":"神田公園グラウンド","address":"長崎県佐々町皆瀬免1185-1","muni":"佐々町","hazards":["洪水","高潮","地震","津波","大規模な火事","内水氾濫"],"kind":"指定緊急避難場所"},"geometry":{"type":"Point","coordinates":[129.675363,33.261603]}},{"type":"Feature","properties":{"name":"北部グラウンド","address":"長崎県佐々町市瀬免350-9","muni":"佐々町","hazards":["洪水","高潮","地震","津波","大規模な火事","内水氾濫"],"kind":"指定緊急避難場所"},"geometry":{"type":"Point","coordinates":[129.659841267852,33.261690205674]}},{"type":"Feature","properties":{"name":"サン・ビレッジさざ","address":"長崎県佐々町小浦免41-3","muni":"佐々町","hazards":["土砂災害","高潮","地震","津波","大規模な火事","内水氾濫"],"kind":"指定緊急避難場所"},"geometry":{"type":"Point","coordinates":[129.640699,33.222035]}},{"type":"Feature","properties":{"name":"口石小学校グラウンド","address":"長崎県佐々町須崎免389","muni":"佐々町","hazards":["洪水","土砂災害","高潮","地震","津波","大規模な火事","内水氾濫"],"kind":"指定緊急避難場所"},"geometry":{"type":"Point","coordinates":[129.6493666,33.22787295]}},{"type":"Feature","properties":{"name":"佐々小学校グラウンド","address":"長崎県佐々町中川原免111-1","muni":"佐々町","hazards":["高潮","地震","津波","大規模な火事","内水氾濫"],"kind":"指定緊急避難場所"},"geometry":{"type":"Point","coordinates":[129.658241,33.25015]}},{"type":"Feature","properties":{"name":"佐々中学校グラウンド","address":"長崎県佐々町本田原免111","muni":"佐々町","hazards":["高潮","地震","津波","大規模な火事","内水氾濫"],"kind":"指定緊急避難場所"},"geometry":{"type":"Point","coordinates":[129.652394,33.2395]}},{"type":"Feature","properties":{"name":"南部地区体育館","address":"長崎県佐々町口石免1336-1","muni":"佐々町","hazards":[],"kind":"指定避難所"},"geometry":{"type":"Point","coordinates":[129.653782,33.223557]}},{"type":"Feature","properties":{"name":"佐々町総合福祉センター","address":"長崎県佐々町市場免23-1","muni":"佐々町","hazards":[],"kind":"指定避難所"},"geometry":{"type":"Point","coordinates":[129.647682,33.233716]}},{"type":"Feature","properties":{"name":"クリーンセンター","address":"長崎県佐々町小浦免1163-20","muni":"佐々町","hazards":[],"kind":"指定避難所"},"geometry":{"type":"Point","coordinates":[129.650257,33.210686]}},{"type":"Feature","properties":{"name":"第２保育所","address":"長崎県佐々町小浦免746","muni":"佐々町","hazards":[],"kind":"指定避難所"},"geometry":{"type":"Point","coordinates":[129.650112,33.221681]}},{"type":"Feature","properties":{"name":"北部地区体育館","address":"長崎県佐々町神田免21-12","muni":"佐々町","hazards":[],"kind":"指定避難所"},"geometry":{"type":"Point","coordinates":[129.665825,33.258947]}},{"type":"Feature","properties":{"name":"口石小学校校舎・体育館","address":"長崎県佐々町須崎免389","muni":"佐々町","hazards":[],"kind":"指定避難所"},"geometry":{"type":"Point","coordinates":[129.650082,33.227703]}},{"type":"Feature","properties":{"name":"佐々小学校校舎・体育館","address":"長崎県佐々町中川原免111-1","muni":"佐々町","hazards":[],"kind":"指定避難所"},"geometry":{"type":"Point","coordinates":[129.657747,33.25029]}},{"type":"Feature","properties":{"name":"佐々町農業体験施設","address":"長崎県佐々町平野免220","muni":"佐々町","hazards":[],"kind":"指定避難所"},"geometry":{"type":"Point","coordinates":[129.667752,33.237153]}},{"type":"Feature","properties":{"name":"佐々中学校校舎・体育館","address":"長崎県佐々町本田原免111","muni":"佐々町","hazards":[],"kind":"指定避難所"},"geometry":{"type":"Point","coordinates":[129.652314,33.240473]}},{"type":"Feature","properties":{"name":"佐々町地域交流センター","address":"長崎県佐々町本田原免123","muni":"佐々町","hazards":[],"kind":"指定避難所"},"geometry":{"type":"Point","coordinates":[129.652218,33.23832]}},{"type":"Feature","properties":{"name":"佐々町民体育館","address":"長崎県佐々町本田原免123","muni":"佐々町","hazards":[],"kind":"指定避難所"},"geometry":{"type":"Point","coordinates":[129.652185,33.238697]}},{"type":"Feature","properties":{"name":"佐々町公民館","address":"長崎県佐々町本田原免123","muni":"佐々町","hazards":[],"kind":"指定避難所"},"geometry":{"type":"Point","coordinates":[129.651906,33.238418]}},{"type":"Feature","properties":{"name":"佐々町文化会館","address":"長崎県佐々町本田原免146","muni":"佐々町","hazards":[],"kind":"指定避難所"},"geometry":{"type":"Point","coordinates":[129.651018,33.238508]}}]}